[{"well_id": "100080808215W500", "formatted_id": "100/08-08-082-15W5/00", "name": "PENN WEST PC RV 2 8-8-82-15", "lat": 56.0930237, "lon": -116.3195216, "formation": "Bluesky", "field": "SEAL", "well_status": "Pumping", "risk_level": "HIGH — DUE", "months_running": 267, "dec_rate_bbl_d": 1.090000033378601, "cumulative_oil": 26619.69921875, "on_production_date": "2003-11-15", "last_production_date": "2025-12-01"}, {"well_id": "103090808215W500", "formatted_id": "103/09-08-082-15W5/00", "name": "PENN WEST 103 SEAL 9-8-82-15", "lat": 56.0931797, "lon": -116.3196836, "formation": "Bluesky", "field": "SEAL", "well_status": "Pumping", "risk_level": "HIGH — DUE", "months_running": 256, "dec_rate_bbl_d": 1.059999942779541, "cumulative_oil": 14931.900390625, "on_production_date": "2004-10-13", "last_production_date": "2025-12-01"}, {"well_id": "100080508215W500", "formatted_id": "100/08-05-082-15W5/00", "name": "PENN WEST SEAL 8-5-82-15", "lat": 56.0815008, "lon": -116.3256029, "formation": "Bluesky", "field": "SEAL", "well_status": "Pumping", "risk_level": "HIGH — DUE", "months_running": 232, "dec_rate_bbl_d": 0.0, "cumulative_oil": 7494.39990234375, "on_production_date": "2006-10-02", "last_production_date": "2025-04-01"}, {"well_id": "100160808215W500", "formatted_id": "100/16-08-082-15W5/00", "name": "PENN WEST SEAL 16-8-82-15", "lat": 56.0987947, "lon": -116.3217575, "formation": "Bluesky", "field": "SEAL", "well_status": "Abandoned", "risk_level": "HIGH — DUE", "months_running": 234, "dec_rate_bbl_d": 0.0, "cumulative_oil": 13579.2001953125, "on_production_date": "2006-08-21", "last_production_date": "2023-08-01"}, {"well_id": "100160508215W500", "formatted_id": "100/16-05-082-15W5/00", "name": "PENN WEST SEAL 16-5-82-15", "lat": 56.0818608, "lon": -116.3256049, "formation": "Bluesky", "field": "SEAL", "well_status": "Pumping", "risk_level": "HIGH — DUE", "months_running": 232, "dec_rate_bbl_d": 0.01999999955296516, "cumulative_oil": 18288.5, "on_production_date": "2006-10-02", "last_production_date": "2025-12-01"}, {"well_id": "104090808215W500", "formatted_id": "104/09-08-082-15W5/00", "name": "PENN WEST 104 SEAL 9-8-82-15", "lat": 56.0987257, "lon": -116.3218605, "formation": "Bluesky", "field": "SEAL", "well_status": "Pumping", "risk_level": "HIGH — DUE", "months_running": 234, "dec_rate_bbl_d": 0.8899999856948853, "cumulative_oil": 14155.7998046875, "on_production_date": "2006-08-21", "last_production_date": "2025-12-01"}, {"well_id": "100010808215W500", "formatted_id": "100/01-08-082-15W5/00", "name": "PENN WEST SEAL 1-8-82-15", "lat": 56.0880898, "lon": -116.3244048, "formation": "Bluesky", "field": "SEAL", "well_status": "Pumping", "risk_level": "HIGH — DUE", "months_running": 235, "dec_rate_bbl_d": 0.0, "cumulative_oil": 16719.400390625, "on_production_date": "2006-07-16", "last_production_date": "2024-12-01"}, {"well_id": "102160808215W500", "formatted_id": "102/16-08-082-15W5/00", "name": "PENN WEST 102 SEAL 16-8-82-15", "lat": 56.0988637, "lon": -116.3216545, "formation": "Bluesky", "field": "SEAL", "well_status": "Suspended", "risk_level": "HIGH — DUE", "months_running": 234, "dec_rate_bbl_d": 0.0, "cumulative_oil": 14309.900390625, "on_production_date": "2006-08-21", "last_production_date": "2023-07-01"}, {"well_id": "103160808215W500", "formatted_id": "103/16-08-082-15W5/00", "name": "PENN WEST 103 SEAL 16-8-82-15", "lat": 56.0989337, "lon": -116.3215535, "formation": "Bluesky", "field": "SEAL", "well_status": "Pumping", "risk_level": "HIGH — DUE", "months_running": 234, "dec_rate_bbl_d": 1.389999985694885, "cumulative_oil": 11979.7001953125, "on_production_date": "2006-08-21", "last_production_date": "2025-12-01"}, {"well_id": "103090508215W500", "formatted_id": "103/09-05-082-15W5/00", "name": "PENN WEST 103 SEAL 9-5-82-15", "lat": 56.0817708, "lon": -116.3256049, "formation": "Bluesky", "field": "SEAL", "well_status": "Pumping", "risk_level": "HIGH — DUE", "months_running": 232, "dec_rate_bbl_d": 2.460000038146973, "cumulative_oil": 22069.900390625, "on_production_date": "2006-10-02", "last_production_date": "2025-12-01"}, {"well_id": "100152408419W500", "formatted_id": "100/15-24-084-19W5/00", "name": "PENN WEST PEACE RIVER 15-24-84-19", "lat": 56.2886668, "lon": -116.8523369, "formation": "Bluesky", "field": "UNDEFINED", "well_status": "Pumping", "risk_level": "HIGH — DUE", "months_running": 237, "dec_rate_bbl_d": 0.25, "cumulative_oil": 24312.30078125, "on_production_date": "2006-05-28", "last_production_date": "2025-12-01"}, {"well_id": "100162408419W500", "formatted_id": "100/16-24-084-19W5/00", "name": "PENN WEST PEACE RIVER 16-24-84-19", "lat": 56.2886668, "lon": -116.8518529, "formation": "Bluesky", "field": "UNDEFINED", "well_status": "Operating", "risk_level": "HIGH — DUE", "months_running": 237, "dec_rate_bbl_d": 0.0, "cumulative_oil": 16685.30078125, "on_production_date": "2006-05-28", "last_production_date": "2025-07-01"}, {"well_id": "104152408419W500", "formatted_id": "104/15-24-084-19W5/00", "name": "PENN WEST 103 PEACE RIV 15-24-84-19", "lat": 56.2886668, "lon": -116.8521749, "formation": "Bluesky", "field": "UNDEFINED", "well_status": "Pumping", "risk_level": "HIGH — DUE", "months_running": 237, "dec_rate_bbl_d": 0.0, "cumulative_oil": 16732.69921875, "on_production_date": "2006-05-28", "last_production_date": "2025-10-01"}, {"well_id": "100142408419W500", "formatted_id": "100/14-24-084-19W5/00", "name": "PENN WEST PEACE RIVER 14-24-84-19", "lat": 56.2886697, "lon": -116.862764, "formation": "Bluesky", "field": "UNDEFINED", "well_status": "Pumping", "risk_level": "HIGH — DUE", "months_running": 230, "dec_rate_bbl_d": 0.8199999928474426, "cumulative_oil": 17928.599609375, "on_production_date": "2006-12-05", "last_production_date": "2025-12-01"}, {"well_id": "102142408419W500", "formatted_id": "102/14-24-084-19W5/00", "name": "PENN WEST 102 PEACE RIV 6-24-84-19", "lat": 56.2886697, "lon": -116.862925, "formation": "Bluesky", "field": "UNDEFINED", "well_status": "Pumping", "risk_level": "HIGH — DUE", "months_running": 230, "dec_rate_bbl_d": 1.309999942779541, "cumulative_oil": 19385.5, "on_production_date": "2006-12-05", "last_production_date": "2025-12-01"}, {"well_id": "103142408419W500", "formatted_id": "103/14-24-084-19W5/00", "name": "PENN WEST 103 PEACE RIV 14-24-84-19", "lat": 56.2886697, "lon": -116.863086, "formation": "Bluesky", "field": "UNDEFINED", "well_status": "Pumping", "risk_level": "HIGH — DUE", "months_running": 230, "dec_rate_bbl_d": 0.1599999964237213, "cumulative_oil": 14986.900390625, "on_production_date": "2006-12-05", "last_production_date": "2025-12-01"}, {"well_id": "1W0132408419W500", "formatted_id": "1W0/13-24-084-19W5/00", "name": "PENN WEST 103 PEACE RIV 13-24-84-19", "lat": 56.2886717, "lon": -116.8726021, "formation": "Bluesky", "field": "UNDEFINED", "well_status": "Pumping", "risk_level": "HIGH — DUE", "months_running": 230, "dec_rate_bbl_d": 0.0, "cumulative_oil": 13737.0, "on_production_date": "2006-12-18", "last_production_date": "2024-09-01"}, {"well_id": "100162608415W500", "formatted_id": "100/16-26-084-15W5/00", "name": "PENN WEST SLAVE 16-26-84-15", "lat": 56.3032751, "lon": -116.2455318, "formation": "Bluesky", "field": "SLAVE", "well_status": "Pumping", "risk_level": "HIGH — DUE", "months_running": 228, "dec_rate_bbl_d": 0.5600000023841858, "cumulative_oil": 15869.099609375, "on_production_date": "2007-02-08", "last_production_date": "2025-12-01"}, {"well_id": "100042908318W500", "formatted_id": "100/04-29-083-18W5/00", "name": "PENN WEST PEACE RIVER 4-29-83-18", "lat": 56.233295, "lon": -116.8187332, "formation": "Bluesky", "field": "UNDEFINED", "well_status": "Operating", "risk_level": "HIGH — DUE", "months_running": 226, "dec_rate_bbl_d": 0.0, "cumulative_oil": 4368.60009765625, "on_production_date": "2007-04-01", "last_production_date": "2014-11-01"}, {"well_id": "100092608415W507", "formatted_id": "100/09-26-084-15W5/07", "name": "PENN WEST 102 SLAVE 9-26-84-15", "lat": 56.3032821, "lon": -116.2456808, "formation": "Bluesky", "field": "SLAVE", "well_status": "Pumping", "risk_level": "HIGH — DUE", "months_running": 219, "dec_rate_bbl_d": 0.9599999785423279, "cumulative_oil": 34200.5, "on_production_date": "2007-11-01", "last_production_date": "2025-12-01"}, {"well_id": "103080808215W500", "formatted_id": "103/08-08-082-15W5/00", "name": "PENN WEST 103 SEAL 8-8-82-15", "lat": 56.0883118, "lon": -116.3229397, "formation": "Bluesky", "field": "SEAL", "well_status": "Pumping", "risk_level": "HIGH — DUE", "months_running": 218, "dec_rate_bbl_d": 1.529999971389771, "cumulative_oil": 26795.900390625, "on_production_date": "2007-12-21", "last_production_date": "2025-12-01"}, {"well_id": "100152608218W500", "formatted_id": "100/15-26-082-18W5/00", "name": "PENN WEST WALRUS 15-26-82-18", "lat": 56.1411361, "lon": -116.6649203, "formation": "Bluesky", "field": "UNDEFINED", "well_status": "Operating", "risk_level": "HIGH — DUE", "months_running": 207, "dec_rate_bbl_d": 0.0, "cumulative_oil": 65573.4921875, "on_production_date": "2008-11-10", "last_production_date": "2025-01-01"}, {"well_id": "100112608218W500", "formatted_id": "100/11-26-082-18W5/00", "name": "PENN WEST WALRUS 11-26-82-18", "lat": 56.1409571, "lon": -116.6649203, "formation": "Bluesky", "field": "UNDEFINED", "well_status": "Operating", "risk_level": "HIGH — DUE", "months_running": 207, "dec_rate_bbl_d": 0.0, "cumulative_oil": 367.7000122070312, "on_production_date": "2008-11-10", "last_production_date": "2013-06-01"}, {"well_id": "102052408218W502", "formatted_id": "102/05-24-082-18W5/02", "name": "PENN WEST HZ HARMON 5-24-82-18", "lat": 56.1407302, "lon": -116.6829395, "formation": "Bluesky", "field": "UNDEFINED", "well_status": "Pumping", "risk_level": "HIGH — DUE", "months_running": 190, "dec_rate_bbl_d": 0.05000000074505806, "cumulative_oil": 86514.5, "on_production_date": "2010-04-26", "last_production_date": "2025-12-01"}, {"well_id": "100062408218W503", "formatted_id": "100/06-24-082-18W5/03", "name": "PENN WEST HZ HARMON 6-24-82-18", "lat": 56.1407302, "lon": -116.6827785, "formation": "Bluesky", "field": "UNDEFINED", "well_status": "Pumping", "risk_level": "HIGH — DUE", "months_running": 190, "dec_rate_bbl_d": 0.2300000041723251, "cumulative_oil": 57136.19921875, "on_production_date": "2010-04-23", "last_production_date": "2025-12-01"}, {"well_id": "103052408218W502", "formatted_id": "103/05-24-082-18W5/02", "name": "PENN WEST HZ 103 HARMON  5-24-82-18", "lat": 56.1404602, "lon": -116.6834215, "formation": "Bluesky", "field": "UNDEFINED", "well_status": "Pumping", "risk_level": "HIGH — DUE", "months_running": 183, "dec_rate_bbl_d": 0.7200000286102295, "cumulative_oil": 85981.109375, "on_production_date": "2010-11-30", "last_production_date": "2025-12-01"}, {"well_id": "100040608317W502", "formatted_id": "100/04-06-083-17W5/02", "name": "PENN WEST 102 HZ WALRUS 4-6-83-17", "lat": 56.1427032, "lon": -116.6827784, "formation": "Bluesky", "field": "UNDEFINED", "well_status": "Pumping", "risk_level": "HIGH — DUE", "months_running": 182, "dec_rate_bbl_d": 4.699999809265137, "cumulative_oil": 43556.80078125, "on_production_date": "2010-12-02", "last_production_date": "2025-12-01"}, {"well_id": "104093608218W509", "formatted_id": "104/09-36-082-18W5/09", "name": "OBE HZ WALRUS 9-36-82-18", "lat": 56.1422161, "lon": -116.6647632, "formation": "Bluesky", "field": "UNDEFINED", "well_status": "Pumping", "risk_level": "HIGH — DUE", "months_running": 100, "dec_rate_bbl_d": 1.149999976158142, "cumulative_oil": 29805.30078125, "on_production_date": "2017-10-14", "last_production_date": "2025-12-01"}, {"well_id": "102043208318W509", "formatted_id": "102/04-32-083-18W5/09", "name": "PENN WEST HZ PEACE RIVER 4-32-83-18", "lat": 56.217826, "lon": -116.8201594, "formation": "Bluesky", "field": "UNDEFINED", "well_status": "Pumping", "risk_level": "HIGH — DUE", "months_running": 111, "dec_rate_bbl_d": 1.629999995231628, "cumulative_oil": 23807.400390625, "on_production_date": "2016-11-02", "last_production_date": "2025-12-01"}, {"well_id": "102042008318W509", "formatted_id": "102/04-20-083-18W5/09", "name": "PENN WEST HZ PEACE RIVER 4-20-83-18", "lat": 56.217827, "lon": -116.8203214, "formation": "Bluesky", "field": "UNDEFINED", "well_status": "Pumping", "risk_level": "HIGH — DUE", "months_running": 111, "dec_rate_bbl_d": 0.0, "cumulative_oil": 8012.7001953125, "on_production_date": "2016-11-04", "last_production_date": "2024-08-01"}, {"well_id": "100132708415W508", "formatted_id": "100/13-27-084-15W5/08", "name": "PENN WEST HZ SLAVE 13-27-84-15", "lat": 56.3028422, "lon": -116.2806339, "formation": "Bluesky", "field": "UNDEFINED", "well_status": "Pumping", "risk_level": "HIGH — DUE", "months_running": 144, "dec_rate_bbl_d": 3.940000057220459, "cumulative_oil": 22172.19921875, "on_production_date": "2014-02-14", "last_production_date": "2025-12-01"}, {"well_id": "100143008318W502", "formatted_id": "100/14-30-083-18W5/02", "name": "PENN WEST PEACE RIVER  14-30-83-18", "lat": 56.217841, "lon": -116.8369876, "formation": "Bluesky", "field": "UNDEFINED", "well_status": "Pumping", "risk_level": "HIGH — DUE", "months_running": 178, "dec_rate_bbl_d": 0.550000011920929, "cumulative_oil": 16190.7001953125, "on_production_date": "2011-04-03", "last_production_date": "2025-12-01"}, {"well_id": "100061908318W509", "formatted_id": "100/06-19-083-18W5/09", "name": "PENN WEST 102 RE PEACE RV 6-19-83-18", "lat": 56.217848, "lon": -116.8371436, "formation": "Bluesky", "field": "UNDEFINED", "well_status": "Pumping", "risk_level": "HIGH — DUE", "months_running": 147, "dec_rate_bbl_d": 1.039999961853027, "cumulative_oil": 2659.60009765625, "on_production_date": "2013-11-29", "last_production_date": "2025-12-01"}, {"well_id": "1W0043308318W502", "formatted_id": "1W0/04-33-083-18W5/02", "name": "PENN WEST 102 PEACE RVR 4-33-83-18", "lat": 56.233708, "lon": -116.8202322, "formation": "Bluesky", "field": "UNDEFINED", "well_status": "Suspended", "risk_level": "HIGH — DUE", "months_running": 167, "dec_rate_bbl_d": 0.0, "cumulative_oil": 10064.599609375, "on_production_date": "2012-03-20", "last_production_date": "2023-11-01"}, {"well_id": "103131908217W509", "formatted_id": "103/13-19-082-17W5/09", "name": "PENN WEST 104 HZ WALRUS 13-19-82-17", "lat": 56.1163032, "lon": -116.6589377, "formation": "Bluesky", "field": "UNDEFINED", "well_status": "Pumping", "risk_level": "HIGH — DUE", "months_running": 108, "dec_rate_bbl_d": 1.710000038146973, "cumulative_oil": 8385.2998046875, "on_production_date": "2017-02-28", "last_production_date": "2025-12-01"}, {"well_id": "104041808217W509", "formatted_id": "104/04-18-082-17W5/09", "name": "PENN WEST 105 HZ DAWSON 4-18-82-17", "lat": 56.1163032, "lon": -116.6587767, "formation": "Bluesky", "field": "DAWSON", "well_status": "Pumping", "risk_level": "HIGH — DUE", "months_running": 108, "dec_rate_bbl_d": 1.789999961853027, "cumulative_oil": 15551.5, "on_production_date": "2017-02-28", "last_production_date": "2025-12-01"}, {"well_id": "102133108318W509", "formatted_id": "102/13-31-083-18W5/09", "name": "PENN WEST 102 RE PEACE R 13-31-83-18", "lat": 56.2455089, "lon": -116.820007, "formation": "Bluesky", "field": "UNDEFINED", "well_status": "Pumping", "risk_level": "HIGH — DUE", "months_running": 147, "dec_rate_bbl_d": 4.570000171661377, "cumulative_oil": 69434.296875, "on_production_date": "2013-11-17", "last_production_date": "2025-12-01"}, {"well_id": "100151208318W502", "formatted_id": "100/15-12-083-18W5/02", "name": "PENN WEST PEACE RIVER 15-12-83-18", "lat": 56.1725751, "lon": -116.7028121, "formation": "Bluesky", "field": "UNDEFINED", "well_status": "Pumping", "risk_level": "HIGH — DUE", "months_running": 167, "dec_rate_bbl_d": 0.0, "cumulative_oil": 6226.2001953125, "on_production_date": "2012-03-26", "last_production_date": "2024-02-01"}, {"well_id": "100020108318W502", "formatted_id": "100/02-01-083-18W5/02", "name": "PENN WEST PEACE RIVER 2-1-83-18", "lat": 56.1725741, "lon": -116.7026221, "formation": "Bluesky", "field": "UNDEFINED", "well_status": "Pumping", "risk_level": "HIGH — DUE", "months_running": 167, "dec_rate_bbl_d": 0.0, "cumulative_oil": 30120.900390625, "on_production_date": "2012-03-26", "last_production_date": "2025-01-01"}, {"well_id": "102060108216W503", "formatted_id": "102/06-01-082-16W5/03", "name": "PENN WEST 102 HZ SEAL 6-1-82-16", "lat": 56.0868878, "lon": -116.3456859, "formation": "Bluesky", "field": "SEAL", "well_status": "Pumping", "risk_level": "HIGH — DUE", "months_running": 165, "dec_rate_bbl_d": 4.829999923706055, "cumulative_oil": 7041.7998046875, "on_production_date": "2012-05-14", "last_production_date": "2025-12-01"}, {"well_id": "100040508317W502", "formatted_id": "100/04-05-083-17W5/02", "name": "PENN WEST HZ PEACE RVR 4-5-83-17", "lat": 56.1728501, "lon": -116.6586566, "formation": "Bluesky", "field": "UNDEFINED", "well_status": "Suspended", "risk_level": "HIGH — DUE", "months_running": 166, "dec_rate_bbl_d": 0.0, "cumulative_oil": 21553.900390625, "on_production_date": "2012-04-06", "last_production_date": "2023-10-01"}, {"well_id": "104162408419W508", "formatted_id": "104/16-24-084-19W5/08", "name": "PENN WEST 104 HZ PEACE R 16-24-84-19", "lat": 56.2889668, "lon": -116.8514159, "formation": "Bluesky", "field": "UNDEFINED", "well_status": "Pumping", "risk_level": "HIGH — DUE", "months_running": 167, "dec_rate_bbl_d": 0.0, "cumulative_oil": 38096.58984375, "on_production_date": "2012-03-30", "last_production_date": "2025-11-01"}, {"well_id": "104052508419W509", "formatted_id": "104/05-25-084-19W5/09", "name": "PENN WEST 103 HZ PEACE R 5-25-84-19", "lat": 56.3126437, "lon": -116.8449145, "formation": "Bluesky", "field": "UNDEFINED", "well_status": "Pumping", "risk_level": "HIGH — DUE", "months_running": 159, "dec_rate_bbl_d": 3.339999914169312, "cumulative_oil": 28364.599609375, "on_production_date": "2012-11-20", "last_production_date": "2025-12-01"}, {"well_id": "106132508419W508", "formatted_id": "106/13-25-084-19W5/08", "name": "PENN WEST 105 HZ PEACE R 13-25-84-19", "lat": 56.3127337, "lon": -116.8449145, "formation": "Bluesky", "field": "UNDEFINED", "well_status": "Pumping", "risk_level": "HIGH — DUE", "months_running": 159, "dec_rate_bbl_d": 1.570000052452087, "cumulative_oil": 29173.30078125, "on_production_date": "2012-11-20", "last_production_date": "2025-12-01"}, {"well_id": "105132408419W509", "formatted_id": "105/13-24-084-19W5/09", "name": "PENN WEST 104 HZ PEACE R 13-24-84-19", "lat": 56.2886717, "lon": -116.8713331, "formation": "Bluesky", "field": "UNDEFINED", "well_status": "Pumping", "risk_level": "HIGH — DUE", "months_running": 158, "dec_rate_bbl_d": 2.509999990463257, "cumulative_oil": 46227.1015625, "on_production_date": "2012-12-23", "last_production_date": "2025-12-01"}, {"well_id": "104162308419W508", "formatted_id": "104/16-23-084-19W5/08", "name": "PENN WEST 104 PEACE RIVE 16-23-84-19", "lat": 56.2886717, "lon": -116.8714941, "formation": "Bluesky", "field": "UNDEFINED", "well_status": "Pumping", "risk_level": "HIGH — DUE", "months_running": 158, "dec_rate_bbl_d": 2.650000095367432, "cumulative_oil": 33514.19921875, "on_production_date": "2012-12-23", "last_production_date": "2025-12-01"}, {"well_id": "105142408419W509", "formatted_id": "105/14-24-084-19W5/09", "name": "PENN WEST 105 HZ PEACE R 14-24-84-19", "lat": 56.2886687, "lon": -116.862119, "formation": "Bluesky", "field": "UNDEFINED", "well_status": "Pumping", "risk_level": "HIGH — DUE", "months_running": 159, "dec_rate_bbl_d": 2.049999952316284, "cumulative_oil": 32407.69921875, "on_production_date": "2012-11-28", "last_production_date": "2025-12-01"}, {"well_id": "106042508419W508", "formatted_id": "106/04-25-084-19W5/08", "name": "PENN WEST 106 PEACE RIVER 4-25-84-19", "lat": 56.3071167, "lon": -116.8449136, "formation": "Bluesky", "field": "UNDEFINED", "well_status": "Pumping", "risk_level": "HIGH — DUE", "months_running": 156, "dec_rate_bbl_d": 3.569999933242798, "cumulative_oil": 31722.0, "on_production_date": "2013-02-11", "last_production_date": "2025-12-01"}, {"well_id": "100082708218W509", "formatted_id": "100/08-27-082-18W5/09", "name": "OBE REENTRY HZ WALR 8-27-82-18", "lat": 56.1453652, "lon": -116.7225968, "formation": "Bluesky", "field": "UNDEFINED", "well_status": "Pumping", "risk_level": "HIGH — DUE", "months_running": 102, "dec_rate_bbl_d": 0.0, "cumulative_oil": 7301.60009765625, "on_production_date": "2017-08-29", "last_production_date": "2024-11-01"}, {"well_id": "100163408218W509", "formatted_id": "100/16-34-082-18W5/09", "name": "PENN WEST REENTRY HZ WAL 16-34-82-18", "lat": 56.1453642, "lon": -116.7224388, "formation": "Bluesky", "field": "UNDEFINED", "well_status": "Pumping", "risk_level": "HIGH — DUE", "months_running": 102, "dec_rate_bbl_d": 7.039999961853027, "cumulative_oil": 34335.8984375, "on_production_date": "2017-08-29", "last_production_date": "2025-12-01"}, {"well_id": "102020108318W508", "formatted_id": "102/02-01-083-18W5/08", "name": "PENN WEST HZ PEACE RVR 2-1-83-18", "lat": 56.1725811, "lon": -116.7037201, "formation": "Bluesky", "field": "UNDEFINED", "well_status": "Pumping", "risk_level": "HIGH — DUE", "months_running": 152, "dec_rate_bbl_d": 0.0, "cumulative_oil": 27189.5, "on_production_date": "2013-06-23", "last_production_date": "2025-01-01"}, {"well_id": "100153108217W509", "formatted_id": "100/15-31-082-17W5/09", "name": "PENN WEST RE WALRUS 15-31-82-17", "lat": 56.1611071, "lon": -116.6433326, "formation": "Bluesky", "field": "UNDEFINED", "well_status": "Pumping", "risk_level": "HIGH — DUE", "months_running": 146, "dec_rate_bbl_d": 0.4300000071525574, "cumulative_oil": 37100.19921875, "on_production_date": "2013-12-01", "last_production_date": "2025-12-01"}, {"well_id": "104132308419W509", "formatted_id": "104/13-23-084-19W5/09", "name": "PENN WEST HZ PEACE RVR 13-23-84-19", "lat": 56.2891377, "lon": -116.8945684, "formation": "Bluesky", "field": "UNDEFINED", "well_status": "Pumping", "risk_level": "HIGH — DUE", "months_running": 147, "dec_rate_bbl_d": 3.369999885559082, "cumulative_oil": 55197.30078125, "on_production_date": "2013-11-29", "last_production_date": "2025-12-01"}, {"well_id": "104152308419W509", "formatted_id": "104/15-23-084-19W5/09", "name": "PENN WEST 102 HZ PEACE R 15-23-84-19", "lat": 56.2883167, "lon": -116.8836533, "formation": "Bluesky", "field": "UNDEFINED", "well_status": "Pumping", "risk_level": "HIGH — DUE", "months_running": 148, "dec_rate_bbl_d": 1.309999942779541, "cumulative_oil": 57365.30078125, "on_production_date": "2013-10-24", "last_production_date": "2025-12-01"}, {"well_id": "102032308419W509", "formatted_id": "102/03-23-084-19W5/09", "name": "PENN WEST HZ PEACE RVR 3-23-84-19", "lat": 56.2883157, "lon": -116.8838153, "formation": "Bluesky", "field": "UNDEFINED", "well_status": "Pumping", "risk_level": "HIGH — DUE", "months_running": 148, "dec_rate_bbl_d": 1.149999976158142, "cumulative_oil": 23913.599609375, "on_production_date": "2013-10-24", "last_production_date": "2025-12-01"}, {"well_id": "105132508419W509", "formatted_id": "105/13-25-084-19W5/09", "name": "PENN WEST HZ PEACE RVR 13-25-84-19", "lat": 56.3137647, "lon": -116.8449145, "formation": "Bluesky", "field": "UNDEFINED", "well_status": "Pumping", "risk_level": "HIGH — DUE", "months_running": 149, "dec_rate_bbl_d": 5.369999885559082, "cumulative_oil": 67983.8984375, "on_production_date": "2013-09-12", "last_production_date": "2025-12-01"}, {"well_id": "100162208419W509", "formatted_id": "100/16-22-084-19W5/09", "name": "PENN WEST 102 HZ PEACE R 16-22-84-19", "lat": 56.2886847, "lon": -116.9077116, "formation": "Bluesky", "field": "UNDEFINED", "well_status": "Pumping", "risk_level": "HIGH — DUE", "months_running": 147, "dec_rate_bbl_d": 3.730000019073486, "cumulative_oil": 45880.30078125, "on_production_date": "2013-11-19", "last_production_date": "2025-12-01"}, {"well_id": "100093108318W509", "formatted_id": "100/09-31-083-18W5/09", "name": "PENN WEST 102 PEACE RVR 9-31-83-18", "lat": 56.2371, "lon": -116.8200661, "formation": "Bluesky", "field": "UNDEFINED", "well_status": "Pumping", "risk_level": "HIGH — DUE", "months_running": 135, "dec_rate_bbl_d": 2.339999914169312, "cumulative_oil": 38800.30078125, "on_production_date": "2014-11-13", "last_production_date": "2025-12-01"}, {"well_id": "103043108318W509", "formatted_id": "103/04-31-083-18W5/09", "name": "PENN WEST 103 PEACE RVR  4-31-83-18", "lat": 56.236921, "lon": -116.8200661, "formation": "Bluesky", "field": "UNDEFINED", "well_status": "Pumping", "risk_level": "HIGH — DUE", "months_running": 135, "dec_rate_bbl_d": 2.690000057220459, "cumulative_oil": 47895.69921875, "on_production_date": "2014-11-08", "last_production_date": "2025-12-01"}, {"well_id": "100053108318W509", "formatted_id": "100/05-31-083-18W5/09", "name": "PENN WEST 5-31-83-18", "lat": 56.23701, "lon": -116.8200661, "formation": "Bluesky", "field": "UNDEFINED", "well_status": "Pumping", "risk_level": "HIGH — DUE", "months_running": 135, "dec_rate_bbl_d": 2.890000104904175, "cumulative_oil": 48540.1015625, "on_production_date": "2014-11-08", "last_production_date": "2025-12-01"}, {"well_id": "102143008318W509", "formatted_id": "102/14-30-083-18W5/09", "name": "PENN WEST 102 HZ SEAL HA 14-30-83-18", "lat": 56.21793, "lon": -116.8359296, "formation": "Bluesky", "field": "UNDEFINED", "well_status": "Pumping", "risk_level": "HIGH — DUE", "months_running": 133, "dec_rate_bbl_d": 2.339999914169312, "cumulative_oil": 45616.80078125, "on_production_date": "2015-01-20", "last_production_date": "2025-12-01"}, {"well_id": "100041908318W509", "formatted_id": "100/04-19-083-18W5/09", "name": "PENN WEST HZ SEAL HARMON  4-19-83-18", "lat": 56.21793, "lon": -116.8360906, "formation": "Bluesky", "field": "UNDEFINED", "well_status": "Pumping", "risk_level": "HIGH — DUE", "months_running": 133, "dec_rate_bbl_d": 5.239999771118164, "cumulative_oil": 29121.69921875, "on_production_date": "2015-01-17", "last_production_date": "2025-12-01"}, {"well_id": "103143008318W509", "formatted_id": "103/14-30-083-18W5/09", "name": "PENN WEST HZ SEAL HARMON 14-30-83-18", "lat": 56.217929, "lon": -116.8362516, "formation": "Bluesky", "field": "UNDEFINED", "well_status": "Pumping", "risk_level": "HIGH — DUE", "months_running": 133, "dec_rate_bbl_d": 0.2000000029802322, "cumulative_oil": 25941.599609375, "on_production_date": "2015-01-16", "last_production_date": "2025-12-01"}, {"well_id": "100163108318W509", "formatted_id": "100/16-31-083-18W5/09", "name": "PENN WEST HZ 16-31-83-18", "lat": 56.233614, "lon": -116.8187841, "formation": "Bluesky", "field": "UNDEFINED", "well_status": "Pumping", "risk_level": "HIGH — DUE", "months_running": 131, "dec_rate_bbl_d": 3.970000028610229, "cumulative_oil": 24878.0, "on_production_date": "2015-03-26", "last_production_date": "2025-12-01"}, {"well_id": "102163008318W509", "formatted_id": "102/16-30-083-18W5/09", "name": "PENN WEST 102 HZ 16-30-83-18", "lat": 56.217814, "lon": -116.8209974, "formation": "Bluesky", "field": "UNDEFINED", "well_status": "Pumping", "risk_level": "HIGH — DUE", "months_running": 133, "dec_rate_bbl_d": 2.279999971389771, "cumulative_oil": 16087.0, "on_production_date": "2015-01-30", "last_production_date": "2025-12-01"}, {"well_id": "100043008318W509", "formatted_id": "100/04-30-083-18W5/09", "name": "PENN WEST HZ PEACE R 4-30-83-18", "lat": 56.217815, "lon": -116.8211174, "formation": "Bluesky", "field": "UNDEFINED", "well_status": "Pumping", "risk_level": "HIGH — DUE", "months_running": 133, "dec_rate_bbl_d": 1.090000033378601, "cumulative_oil": 15333.0, "on_production_date": "2015-01-28", "last_production_date": "2025-12-01"}, {"well_id": "102122408218W509", "formatted_id": "102/12-24-082-18W5/09", "name": "PENN WEST SEAL HV SOUTH 12-24-82-18", "lat": 56.1428842, "lon": -116.6832604, "formation": "Bluesky", "field": "UNDEFINED", "well_status": "Pumping", "risk_level": "HIGH — DUE", "months_running": 131, "dec_rate_bbl_d": 10.5, "cumulative_oil": 86650.203125, "on_production_date": "2015-03-14", "last_production_date": "2025-12-01"}, {"well_id": "102092308218W509", "formatted_id": "102/09-23-082-18W5/09", "name": "PENN WEST SEAL HV SOUTH 9-23-82-18", "lat": 56.1428842, "lon": -116.6834214, "formation": "Bluesky", "field": "UNDEFINED", "well_status": "Pumping", "risk_level": "HIGH — DUE", "months_running": 131, "dec_rate_bbl_d": 13.8100004196167, "cumulative_oil": 83293.5078125, "on_production_date": "2015-03-14", "last_production_date": "2025-12-01"}, {"well_id": "100142208419W509", "formatted_id": "100/14-22-084-19W5/09", "name": "PENN WEST HZ PEACE R 14-22-84-19", "lat": 56.2876047, "lon": -116.9081986, "formation": "Bluesky", "field": "UNDEFINED", "well_status": "Pumping", "risk_level": "HIGH — DUE", "months_running": 127, "dec_rate_bbl_d": 1.309999942779541, "cumulative_oil": 34898.69921875, "on_production_date": "2015-07-31", "last_production_date": "2025-12-01"}, {"well_id": "100013308218W509", "formatted_id": "100/01-33-082-18W5/09", "name": "PENN WEST 102 HZ WALRUS 1-33-82-18", "lat": 56.1438742, "lon": -116.7180258, "formation": "Bluesky", "field": "UNDEFINED", "well_status": "Pumping", "risk_level": "HIGH — DUE", "months_running": 125, "dec_rate_bbl_d": 2.019999980926514, "cumulative_oil": 21342.19921875, "on_production_date": "2015-09-12", "last_production_date": "2025-12-01"}, {"well_id": "100083308218W509", "formatted_id": "100/08-33-082-18W5/09", "name": "PENN WEST 100 HZ WALRUS 8-33-82-18", "lat": 56.1438742, "lon": -116.7178648, "formation": "Bluesky", "field": "UNDEFINED", "well_status": "Pumping", "risk_level": "HIGH — DUE", "months_running": 125, "dec_rate_bbl_d": 2.519999980926514, "cumulative_oil": 19837.19921875, "on_production_date": "2015-09-12", "last_production_date": "2025-12-01"}, {"well_id": "100121908217W509", "formatted_id": "100/12-19-082-17W5/09", "name": "PENN WEST HZ WALRUS 12-19-82-17", "lat": 56.1406851, "lon": -116.6649433, "formation": "Bluesky", "field": "UNDEFINED", "well_status": "Pumping", "risk_level": "HIGH — DUE", "months_running": 124, "dec_rate_bbl_d": 0.1500000059604645, "cumulative_oil": 15277.099609375, "on_production_date": "2015-10-17", "last_production_date": "2025-12-01"}, {"well_id": "102123608218W509", "formatted_id": "102/12-36-082-18W5/09", "name": "PENN WEST HZ 102 HARMON 12-36-82-18", "lat": 56.1419162, "lon": -116.6830985, "formation": "Bluesky", "field": "UNDEFINED", "well_status": "Pumping", "risk_level": "HIGH — DUE", "months_running": 124, "dec_rate_bbl_d": 0.800000011920929, "cumulative_oil": 40818.69921875, "on_production_date": "2015-10-23", "last_production_date": "2025-12-01"}, {"well_id": "102113608218W509", "formatted_id": "102/11-36-082-18W5/09", "name": "PENN WEST HZ 102 HARMON 11-36-82-18", "lat": 56.1419122, "lon": -116.6829375, "formation": "Bluesky", "field": "UNDEFINED", "well_status": "Pumping", "risk_level": "HIGH — DUE", "months_running": 124, "dec_rate_bbl_d": 6.659999847412109, "cumulative_oil": 65606.6015625, "on_production_date": "2015-10-25", "last_production_date": "2025-12-01"}, {"well_id": "102143508218W509", "formatted_id": "102/14-35-082-18W5/09", "name": "PENN WEST 102 HZ WALRUS 14-35-82-18", "lat": 56.1408862, "lon": -116.7064747, "formation": "Bluesky", "field": "UNDEFINED", "well_status": "Pumping", "risk_level": "HIGH — DUE", "months_running": 123, "dec_rate_bbl_d": 4.880000114440918, "cumulative_oil": 98896.0078125, "on_production_date": "2015-11-30", "last_production_date": "2025-12-01"}, {"well_id": "100143508218W509", "formatted_id": "100/14-35-082-18W5/09", "name": "PENN WEST HZ WALRUS 14-35-82-18", "lat": 56.1408862, "lon": -116.7067967, "formation": "Bluesky", "field": "UNDEFINED", "well_status": "Pumping", "risk_level": "HIGH — DUE", "months_running": 123, "dec_rate_bbl_d": 1.909999966621399, "cumulative_oil": 53524.30078125, "on_production_date": "2015-11-27", "last_production_date": "2025-12-01"}, {"well_id": "100123508218W509", "formatted_id": "100/12-35-082-18W5/09", "name": "PENN WEST HZ WALRUS 12-35-82-18", "lat": 56.1408862, "lon": -116.7071177, "formation": "Bluesky", "field": "UNDEFINED", "well_status": "Pumping", "risk_level": "HIGH — DUE", "months_running": 123, "dec_rate_bbl_d": 3.730000019073486, "cumulative_oil": 39710.6015625, "on_production_date": "2015-11-16", "last_production_date": "2025-12-01"}, {"well_id": "100161208318W509", "formatted_id": "100/16-12-083-18W5/09", "name": "PENN WEST HZ 102 PEACE R 16-12-83-18", "lat": 56.1715441, "lon": -116.69449, "formation": "Bluesky", "field": "UNDEFINED", "well_status": "Pumping", "risk_level": "HIGH — DUE", "months_running": 123, "dec_rate_bbl_d": 2.069999933242798, "cumulative_oil": 22980.19921875, "on_production_date": "2015-11-03", "last_production_date": "2025-12-01"}, {"well_id": "100163508218W509", "formatted_id": "100/16-35-082-18W5/09", "name": "PENN WEST HZ PEACE RIVER 16-35-82-18", "lat": 56.1715441, "lon": -116.694653, "formation": "Bluesky", "field": "UNDEFINED", "well_status": "Pumping", "risk_level": "HIGH — DUE", "months_running": 123, "dec_rate_bbl_d": 1.330000042915344, "cumulative_oil": 36877.0, "on_production_date": "2015-11-03", "last_production_date": "2025-12-01"}, {"well_id": "102040508317W509", "formatted_id": "102/04-05-083-17W5/09", "name": "PENN WEST HZ WALRUS 4-5-83-17", "lat": 56.1430601, "lon": -116.6583231, "formation": "Bluesky", "field": "UNDEFINED", "well_status": "Pumping", "risk_level": "HIGH — DUE", "months_running": 122, "dec_rate_bbl_d": 4.0, "cumulative_oil": 44370.19921875, "on_production_date": "2015-12-18", "last_production_date": "2025-12-01"}, {"well_id": "103143108217W509", "formatted_id": "103/14-31-082-17W5/09", "name": "PENN WEST HZ WALRUS 14-31-82-17", "lat": 56.1429711, "lon": -116.6579221, "formation": "Bluesky", "field": "UNDEFINED", "well_status": "Pumping", "risk_level": "HIGH — DUE", "months_running": 121, "dec_rate_bbl_d": 3.640000104904175, "cumulative_oil": 42085.19921875, "on_production_date": "2016-01-15", "last_production_date": "2025-12-01"}, {"well_id": "100140808317W509", "formatted_id": "100/14-08-083-17W5/09", "name": "PENN WEST SEAL HV SOUTH 14-8-83-17", "lat": 56.1728171, "lon": -116.6504644, "formation": "Bluesky", "field": "UNDEFINED", "well_status": "Pumping", "risk_level": "HIGH — DUE", "months_running": 122, "dec_rate_bbl_d": 1.190000057220459, "cumulative_oil": 12273.900390625, "on_production_date": "2015-12-12", "last_production_date": "2025-12-01"}, {"well_id": "102153108217W509", "formatted_id": "102/15-31-082-17W5/09", "name": "PENN WEST HZ WALRUS 15-31-82-17", "lat": 56.1728151, "lon": -116.6501424, "formation": "Bluesky", "field": "UNDEFINED", "well_status": "Pumping", "risk_level": "HIGH — DUE", "months_running": 122, "dec_rate_bbl_d": 0.9399999976158142, "cumulative_oil": 22099.69921875, "on_production_date": "2015-12-27", "last_production_date": "2025-12-01"}, {"well_id": "102143108217W509", "formatted_id": "102/14-31-082-17W5/09", "name": "PENN WEST HZ WALRUS 14-31-82-17", "lat": 56.1728171, "lon": -116.6504644, "formation": "Bluesky", "field": "UNDEFINED", "well_status": "Pumping", "risk_level": "HIGH — DUE", "months_running": 122, "dec_rate_bbl_d": 2.630000114440918, "cumulative_oil": 37932.80078125, "on_production_date": "2015-12-12", "last_production_date": "2025-12-01"}, {"well_id": "100160808317W509", "formatted_id": "100/16-08-083-17W5/09", "name": "PENN WEST 102 HZ WALRUS 16-8-83-17", "lat": 56.1728141, "lon": -116.6497154, "formation": "Bluesky", "field": "UNDEFINED", "well_status": "Pumping", "risk_level": "HIGH — DUE", "months_running": 122, "dec_rate_bbl_d": 4.25, "cumulative_oil": 18814.69921875, "on_production_date": "2015-12-30", "last_production_date": "2025-12-01"}, {"well_id": "1W0133108217W509", "formatted_id": "1W0/13-31-082-17W5/09", "name": "PENN WEST 102 HZ WALRUS 13-31-82-17", "lat": 56.1729271, "lon": -116.6600746, "formation": "Bluesky", "field": "UNDEFINED", "well_status": "Pumping", "risk_level": "HIGH — DUE", "months_running": 120, "dec_rate_bbl_d": 1.970000028610229, "cumulative_oil": 54068.80078125, "on_production_date": "2016-02-03", "last_production_date": "2025-12-01"}, {"well_id": "1W0130808317W509", "formatted_id": "1W0/13-08-083-17W5/09", "name": "PENN WEST HZ WALRUS 13-8-83-17", "lat": 56.1729261, "lon": -116.6596726, "formation": "Bluesky", "field": "UNDEFINED", "well_status": "Pumping", "risk_level": "HIGH — DUE", "months_running": 121, "dec_rate_bbl_d": 4.03000020980835, "cumulative_oil": 51254.69921875, "on_production_date": "2016-01-19", "last_production_date": "2025-12-01"}, {"well_id": "100160508317W509", "formatted_id": "100/16-05-083-17W5/09", "name": "PENN WEST HZ WALRUS 16-5-83-17", "lat": 56.1731261, "lon": -116.6747458, "formation": "Bluesky", "field": "UNDEFINED", "well_status": "Pumping", "risk_level": "HIGH — DUE", "months_running": 120, "dec_rate_bbl_d": 2.319999933242798, "cumulative_oil": 42460.19921875, "on_production_date": "2016-02-25", "last_production_date": "2025-12-01"}, {"well_id": "100150708317W509", "formatted_id": "100/15-07-083-17W5/09", "name": "PENN WEST HZ WALRUS 15-7-83-17", "lat": 56.1731261, "lon": -116.6751478, "formation": "Bluesky", "field": "UNDEFINED", "well_status": "Pumping", "risk_level": "HIGH — DUE", "months_running": 119, "dec_rate_bbl_d": 3.039999961853027, "cumulative_oil": 48106.69921875, "on_production_date": "2016-03-05", "last_production_date": "2025-12-01"}, {"well_id": "102150708317W509", "formatted_id": "102/15-07-083-17W5/09", "name": "PENN WEST HZ WALRUS 15-7-83-17", "lat": 56.1731251, "lon": -116.6755508, "formation": "Bluesky", "field": "UNDEFINED", "well_status": "Pumping", "risk_level": "HIGH — DUE", "months_running": 119, "dec_rate_bbl_d": 1.860000014305115, "cumulative_oil": 31320.0, "on_production_date": "2016-03-18", "last_production_date": "2025-12-01"}, {"well_id": "104123608218W509", "formatted_id": "104/12-36-082-18W5/09", "name": "PENN WEST HZ WALRUS 12-36-82-18", "lat": 56.1731381, "lon": -116.6853639, "formation": "Bluesky", "field": "UNDEFINED", "well_status": "Pumping", "risk_level": "HIGH — DUE", "months_running": 119, "dec_rate_bbl_d": 3.75, "cumulative_oil": 42476.19921875, "on_production_date": "2016-03-09", "last_production_date": "2025-12-01"}, {"well_id": "103123608218W509", "formatted_id": "103/12-36-082-18W5/09", "name": "PENN WEST HZ WALRUS 12-36-82-18", "lat": 56.1731391, "lon": -116.6857659, "formation": "Bluesky", "field": "UNDEFINED", "well_status": "Pumping", "risk_level": "HIGH — DUE", "months_running": 119, "dec_rate_bbl_d": 3.069999933242798, "cumulative_oil": 55366.19921875, "on_production_date": "2016-03-22", "last_production_date": "2025-12-01"}, {"well_id": "102140708317W509", "formatted_id": "102/14-07-083-17W5/09", "name": "PENN WEST HZ WALRUS 14-7-83-17", "lat": 56.1731401, "lon": -116.6861679, "formation": "Bluesky", "field": "UNDEFINED", "well_status": "Pumping", "risk_level": "HIGH — DUE", "months_running": 118, "dec_rate_bbl_d": 3.950000047683716, "cumulative_oil": 30704.0, "on_production_date": "2016-04-08", "last_production_date": "2025-12-01"}, {"well_id": "100150108318W509", "formatted_id": "100/15-01-083-18W5/09", "name": "PENN WEST HZ WALRUS 15-1-83-18", "lat": 56.1731251, "lon": -116.6759528, "formation": "Bluesky", "field": "UNDEFINED", "well_status": "Pumping", "risk_level": "HIGH — DUE", "months_running": 118, "dec_rate_bbl_d": 3.089999914169312, "cumulative_oil": 35095.30078125, "on_production_date": "2016-04-21", "last_production_date": "2025-12-01"}, {"well_id": "100040108318W509", "formatted_id": "100/04-01-083-18W5/09", "name": "PENN WEST HZ WALRUS 4-1-83-18", "lat": 56.1727281, "lon": -116.7040231, "formation": "Bluesky", "field": "UNDEFINED", "well_status": "Pumping", "risk_level": "HIGH — DUE", "months_running": 120, "dec_rate_bbl_d": 0.0, "cumulative_oil": 16469.69921875, "on_production_date": "2016-02-05", "last_production_date": "2025-01-01"}, {"well_id": "104051308218W509", "formatted_id": "104/05-13-082-18W5/09", "name": "PENN WEST HZ HARMONV 5-13-82-18", "lat": 56.1163942, "lon": -116.6593397, "formation": "Bluesky", "field": "HARMON VALLEY", "well_status": "Pumping", "risk_level": "HIGH — DUE", "months_running": 108, "dec_rate_bbl_d": 8.229999542236328, "cumulative_oil": 78228.296875, "on_production_date": "2017-02-28", "last_production_date": "2025-12-01"}, {"well_id": "100021808217W509", "formatted_id": "100/02-18-082-17W5/09", "name": "PENN WEST HZ DAWSON 2-18-82-17", "lat": 56.1166452, "lon": -116.6507876, "formation": "Bluesky", "field": "DAWSON", "well_status": "Pumping", "risk_level": "HIGH — DUE", "months_running": 111, "dec_rate_bbl_d": 0.1500000059604645, "cumulative_oil": 8904.099609375, "on_production_date": "2016-11-25", "last_production_date": "2025-12-01"}, {"well_id": "102151908217W509", "formatted_id": "102/15-19-082-17W5/09", "name": "PENN WEST HZ WALRUS 15-19-82-17", "lat": 56.1166442, "lon": -116.6503856, "formation": "Bluesky", "field": "DAWSON", "well_status": "Pumping", "risk_level": "HIGH — DUE", "months_running": 110, "dec_rate_bbl_d": 0.3499999940395355, "cumulative_oil": 6805.7998046875, "on_production_date": "2016-12-02", "last_production_date": "2025-12-01"}, {"well_id": "100151908217W509", "formatted_id": "100/15-19-082-17W5/09", "name": "PENN WEST HZ WALRUS 15-19-82-17", "lat": 56.1166442, "lon": -116.6503856, "formation": "Bluesky", "field": "DAWSON", "well_status": "Pumping", "risk_level": "HIGH — DUE", "months_running": 111, "dec_rate_bbl_d": 0.05999999865889549, "cumulative_oil": 9143.900390625, "on_production_date": "2016-11-25", "last_production_date": "2025-12-01"}, {"well_id": "100011908318W509", "formatted_id": "100/01-19-083-18W5/09", "name": "PENN WEST HZ PEACE RIVER 1-19-83-18", "lat": 56.218017, "lon": -116.8299975, "formation": "Bluesky", "field": "UNDEFINED", "well_status": "Pumping", "risk_level": "HIGH — DUE", "months_running": 113, "dec_rate_bbl_d": 0.5099999904632568, "cumulative_oil": 22898.0, "on_production_date": "2016-09-10", "last_production_date": "2025-12-01"}, {"well_id": "102021908318W509", "formatted_id": "102/02-19-083-18W5/09", "name": "PENN WEST HZ PEACE RIVER 2-19-83-18", "lat": 56.218016, "lon": -116.8304005, "formation": "Bluesky", "field": "UNDEFINED", "well_status": "Pumping", "risk_level": "HIGH — DUE", "months_running": 113, "dec_rate_bbl_d": 1.519999980926514, "cumulative_oil": 23763.5, "on_production_date": "2016-09-25", "last_production_date": "2025-12-01"}, {"well_id": "100081908217W509", "formatted_id": "100/08-19-082-17W5/09", "name": "PENN WEST HZ WALRUS 8-19-82-17", "lat": 56.1134812, "lon": -116.6676558, "formation": "Bluesky", "field": "HARMON VALLEY", "well_status": "Pumping", "risk_level": "HIGH — DUE", "months_running": 110, "dec_rate_bbl_d": 1.019999980926514, "cumulative_oil": 14619.099609375, "on_production_date": "2016-12-23", "last_production_date": "2025-12-01"}, {"well_id": "100011308218W509", "formatted_id": "100/01-13-082-18W5/09", "name": "PENN WEST HZ HARMONV 1-13-82-18", "lat": 56.1134812, "lon": -116.6680568, "formation": "Bluesky", "field": "HARMON VALLEY", "well_status": "Pumping", "risk_level": "HIGH — DUE", "months_running": 110, "dec_rate_bbl_d": 0.9800000190734863, "cumulative_oil": 12639.900390625, "on_production_date": "2016-12-15", "last_production_date": "2025-12-01"}, {"well_id": "102011308218W509", "formatted_id": "102/01-13-082-18W5/09", "name": "PENN WEST 102 HZ HARMONV 1-13-82-18", "lat": 56.1134812, "lon": -116.6688598, "formation": "Bluesky", "field": "HARMON VALLEY", "well_status": "Pumping", "risk_level": "HIGH — DUE", "months_running": 110, "dec_rate_bbl_d": 0.6000000238418579, "cumulative_oil": 22707.80078125, "on_production_date": "2016-12-14", "last_production_date": "2025-12-01"}, {"well_id": "102082508218W509", "formatted_id": "102/08-25-082-18W5/09", "name": "PENN WEST HZ WALRUS 8-25-82-18", "lat": 56.1134812, "lon": -116.6692609, "formation": "Bluesky", "field": "HARMON VALLEY", "well_status": "Pumping", "risk_level": "HIGH — DUE", "months_running": 102, "dec_rate_bbl_d": 4.269999980926514, "cumulative_oil": 15292.5, "on_production_date": "2017-08-12", "last_production_date": "2025-12-01"}, {"well_id": "103082408218W509", "formatted_id": "103/08-24-082-18W5/09", "name": "PENN WEST 103 HZ WALRUS 8-24-82-18", "lat": 56.1134812, "lon": -116.6684588, "formation": "Bluesky", "field": "HARMON VALLEY", "well_status": "Pumping", "risk_level": "HIGH — DUE", "months_running": 110, "dec_rate_bbl_d": 1.019999980926514, "cumulative_oil": 12973.2998046875, "on_production_date": "2016-12-05", "last_production_date": "2025-12-01"}, {"well_id": "100031308218W509", "formatted_id": "100/03-13-082-18W5/09", "name": "PENN WEST HZ HARMONV 3-13-82-18", "lat": 56.1118232, "lon": -116.682869, "formation": "Bluesky", "field": "HARMON VALLEY", "well_status": "Pumping", "risk_level": "HIGH — DUE", "months_running": 112, "dec_rate_bbl_d": 0.2899999916553497, "cumulative_oil": 9142.099609375, "on_production_date": "2016-10-11", "last_production_date": "2025-12-01"}, {"well_id": "100041308218W509", "formatted_id": "100/04-13-082-18W5/09", "name": "PENN WEST HZ HARMONV 4-13-82-18", "lat": 56.1118232, "lon": -116.683591, "formation": "Bluesky", "field": "HARMON VALLEY", "well_status": "Pumping", "risk_level": "HIGH — DUE", "months_running": 111, "dec_rate_bbl_d": 3.519999980926514, "cumulative_oil": 27960.19921875, "on_production_date": "2016-11-02", "last_production_date": "2025-12-01"}, {"well_id": "104052408218W509", "formatted_id": "104/05-24-082-18W5/09", "name": "PENN WEST 104 HZ HARMONV 5-24-82-18", "lat": 56.1118232, "lon": -116.683912, "formation": "Bluesky", "field": "HARMON VALLEY", "well_status": "Pumping", "risk_level": "HIGH — DUE", "months_running": 111, "dec_rate_bbl_d": 9.100000381469727, "cumulative_oil": 73045.203125, "on_production_date": "2016-11-10", "last_production_date": "2025-12-01"}, {"well_id": "102062408218W509", "formatted_id": "102/06-24-082-18W5/09", "name": "PENN WEST 102 HZ HARMONV 6-24-82-18", "lat": 56.1118232, "lon": -116.68327, "formation": "Bluesky", "field": "HARMON VALLEY", "well_status": "Pumping", "risk_level": "HIGH — DUE", "months_running": 112, "dec_rate_bbl_d": 6.880000114440918, "cumulative_oil": 69077.296875, "on_production_date": "2016-10-18", "last_production_date": "2025-12-01"}, {"well_id": "100162908318W509", "formatted_id": "100/16-29-083-18W5/09", "name": "PENN WEST PEACE RIVER 16-29-83-18", "lat": 56.229207, "lon": -116.7673236, "formation": "Bluesky", "field": "UNDEFINED", "well_status": "Pumping", "risk_level": "HIGH — DUE", "months_running": 107, "dec_rate_bbl_d": 2.559999942779541, "cumulative_oil": 8886.099609375, "on_production_date": "2017-03-25", "last_production_date": "2025-12-01"}, {"well_id": "103133408318W509", "formatted_id": "103/13-34-083-18W5/09", "name": "PENN WEST PEACE RIVER 13-34-83-18", "lat": 56.229207, "lon": -116.7669206, "formation": "Bluesky", "field": "UNDEFINED", "well_status": "Pumping", "risk_level": "HIGH — DUE", "months_running": 106, "dec_rate_bbl_d": 2.079999923706055, "cumulative_oil": 8434.7998046875, "on_production_date": "2017-04-10", "last_production_date": "2025-12-01"}, {"well_id": "100092908318W509", "formatted_id": "100/09-29-083-18W5/09", "name": "PENN WEST PEACE RIVER 9-29-83-18", "lat": 56.229207, "lon": -116.7665186, "formation": "Bluesky", "field": "UNDEFINED", "well_status": "Pumping", "risk_level": "HIGH — DUE", "months_running": 105, "dec_rate_bbl_d": 1.460000038146973, "cumulative_oil": 3912.199951171875, "on_production_date": "2017-05-04", "last_production_date": "2025-12-01"}, {"well_id": "100022008318W509", "formatted_id": "100/02-20-083-18W5/09", "name": "PENN WEST PEACE RIVER 2-20-83-18", "lat": 56.21786, "lon": -116.8095383, "formation": "Bluesky", "field": "UNDEFINED", "well_status": "Pumping", "risk_level": "HIGH — DUE", "months_running": 106, "dec_rate_bbl_d": 2.190000057220459, "cumulative_oil": 13639.7001953125, "on_production_date": "2017-04-28", "last_production_date": "2025-12-01"}, {"well_id": "100032008318W509", "formatted_id": "100/03-20-083-18W5/09", "name": "PENN WEST PEACE RIVER 3-20-83-18", "lat": 56.217865, "lon": -116.8103433, "formation": "Bluesky", "field": "UNDEFINED", "well_status": "Suspended", "risk_level": "HIGH — DUE", "months_running": 107, "dec_rate_bbl_d": 0.0, "cumulative_oil": 10790.7998046875, "on_production_date": "2017-03-28", "last_production_date": "2023-11-01"}, {"well_id": "100151908318W509", "formatted_id": "100/15-19-083-18W5/09", "name": "PENN WEST PEACE RIVER 15-19-83-18", "lat": 56.217858, "lon": -116.8091363, "formation": "Bluesky", "field": "UNDEFINED", "well_status": "Pumping", "risk_level": "HIGH — DUE", "months_running": 105, "dec_rate_bbl_d": 0.9200000166893005, "cumulative_oil": 12340.0, "on_production_date": "2017-05-20", "last_production_date": "2025-12-01"}, {"well_id": "100023208318W509", "formatted_id": "100/02-32-083-18W5/09", "name": "PENN WEST PEACE RIVER 2-32-83-18", "lat": 56.217863, "lon": -116.8099413, "formation": "Bluesky", "field": "UNDEFINED", "well_status": "Pumping", "risk_level": "HIGH — DUE", "months_running": 106, "dec_rate_bbl_d": 1.100000023841858, "cumulative_oil": 14033.900390625, "on_production_date": "2017-04-06", "last_production_date": "2025-12-01"}, {"well_id": "100033208318W509", "formatted_id": "100/03-32-083-18W5/09", "name": "PENN WEST PEACE RIVER 3-32-83-18", "lat": 56.217867, "lon": -116.8107453, "formation": "Bluesky", "field": "UNDEFINED", "well_status": "Pumping", "risk_level": "HIGH — DUE", "months_running": 107, "dec_rate_bbl_d": 1.149999976158142, "cumulative_oil": 14742.0, "on_production_date": "2017-03-20", "last_production_date": "2025-12-01"}, {"well_id": "100163408318W509", "formatted_id": "100/16-34-083-18W5/09", "name": "OBE HZ PEACE RIVER 16-34-83-18", "lat": 56.229531, "lon": -116.7594515, "formation": "Bluesky", "field": "UNDEFINED", "well_status": "Pumping", "risk_level": "HIGH — DUE", "months_running": 100, "dec_rate_bbl_d": 1.230000019073486, "cumulative_oil": 17332.599609375, "on_production_date": "2017-10-09", "last_production_date": "2025-12-01"}, {"well_id": "103143408318W509", "formatted_id": "103/14-34-083-18W5/09", "name": "OBE 102 HZ PEACE R 14-34-83-18", "lat": 56.229533, "lon": -116.7602565, "formation": "Bluesky", "field": "UNDEFINED", "well_status": "Pumping", "risk_level": "HIGH — DUE", "months_running": 101, "dec_rate_bbl_d": 0.800000011920929, "cumulative_oil": 19873.5, "on_production_date": "2017-09-16", "last_production_date": "2025-12-01"}, {"well_id": "102143408318W509", "formatted_id": "102/14-34-083-18W5/09", "name": "PENN WEST 102 HZ PEACE R 14-34-83-18", "lat": 56.229532, "lon": -116.7598545, "formation": "Bluesky", "field": "UNDEFINED", "well_status": "Pumping", "risk_level": "HIGH — DUE", "months_running": 101, "dec_rate_bbl_d": 3.0, "cumulative_oil": 17282.599609375, "on_production_date": "2017-09-21", "last_production_date": "2025-12-01"}, {"well_id": "100023508218W509", "formatted_id": "100/02-35-082-18W5/09", "name": "OBE PENN WEST HZ WALRUS 4 2-35-82-18", "lat": 56.1429681, "lon": -116.6591272, "formation": "Bluesky", "field": "UNDEFINED", "well_status": "Pumping", "risk_level": "HIGH — DUE", "months_running": 101, "dec_rate_bbl_d": 5.03000020980835, "cumulative_oil": 75057.796875, "on_production_date": "2017-09-21", "last_production_date": "2025-12-01"}, {"well_id": "104113608218W509", "formatted_id": "104/11-36-082-18W5/09", "name": "OBE HZ HARMON 11-36-82-18", "lat": 56.1428372, "lon": -116.6823804, "formation": "Bluesky", "field": "UNDEFINED", "well_status": "Pumping", "risk_level": "HIGH — DUE", "months_running": 100, "dec_rate_bbl_d": 4.010000228881836, "cumulative_oil": 43300.80078125, "on_production_date": "2017-10-29", "last_production_date": "2025-12-01"}, {"well_id": "104020808317W509", "formatted_id": "104/02-08-083-17W5/09", "name": "OBE HZ WALRUS 2-8-83-17", "lat": 56.1611101, "lon": -116.6447796, "formation": "Bluesky", "field": "CADOTTE", "well_status": "Pumping", "risk_level": "HIGH — DUE", "months_running": 98, "dec_rate_bbl_d": 0.75, "cumulative_oil": 7161.7998046875, "on_production_date": "2017-12-11", "last_production_date": "2025-12-01"}, {"well_id": "102013108217W509", "formatted_id": "102/01-31-082-17W5/09", "name": "PENN WEST HZ WALRU WALRUS 1-31-82-17", "lat": 56.1611091, "lon": -116.6443776, "formation": "Bluesky", "field": "UNDEFINED", "well_status": "Pumping", "risk_level": "HIGH — DUE", "months_running": 98, "dec_rate_bbl_d": 1.950000047683716, "cumulative_oil": 10885.7001953125, "on_production_date": "2017-12-09", "last_production_date": "2025-12-01"}, {"well_id": "100130508317W509", "formatted_id": "100/13-05-083-17W5/09", "name": "OBE 103 HZ 13-5-83-17", "lat": 56.1730361, "lon": -116.6760848, "formation": "Bluesky", "field": "UNDEFINED", "well_status": "Pumping", "risk_level": "HIGH — DUE", "months_running": 96, "dec_rate_bbl_d": 5.550000190734863, "cumulative_oil": 59402.1015625, "on_production_date": "2018-02-20", "last_production_date": "2025-12-01"}, {"well_id": "103113608218W509", "formatted_id": "103/11-36-082-18W5/09", "name": "PENN WEST 103 HZ WALRUS 11-36-82-18", "lat": 56.1730361, "lon": -116.6768898, "formation": "Bluesky", "field": "UNDEFINED", "well_status": "Pumping", "risk_level": "HIGH — DUE", "months_running": 95, "dec_rate_bbl_d": 11.93000030517578, "cumulative_oil": 91092.4921875, "on_production_date": "2018-03-23", "last_production_date": "2025-12-01"}, {"well_id": "102103608218W509", "formatted_id": "102/10-36-082-18W5/09", "name": "PENN WEST 102 HZ 10-36-82-18", "lat": 56.1730361, "lon": -116.6764868, "formation": "Bluesky", "field": "UNDEFINED", "well_status": "Pumping", "risk_level": "HIGH — DUE", "months_running": 95, "dec_rate_bbl_d": 8.130000114440918, "cumulative_oil": 61108.30078125, "on_production_date": "2018-03-08", "last_production_date": "2025-12-01"}, {"well_id": "100040708317W509", "formatted_id": "100/04-07-083-17W5/09", "name": "PENN WEST HZ WALRUS 4-7-83-17", "lat": 56.1729731, "lon": -116.6604766, "formation": "Bluesky", "field": "UNDEFINED", "well_status": "Pumping", "risk_level": "HIGH — DUE", "months_running": 94, "dec_rate_bbl_d": 8.6899995803833, "cumulative_oil": 84717.296875, "on_production_date": "2018-04-23", "last_production_date": "2025-12-01"}, {"well_id": "103010508215W509", "formatted_id": "103/01-05-082-15W5/09", "name": "OBE 103 HZ SEAL 1-5-82-15", "lat": 56.0765788, "lon": -116.32664, "formation": "Bluesky", "field": "SEAL", "well_status": "Pumping", "risk_level": "HIGH — DUE", "months_running": 88, "dec_rate_bbl_d": 3.599999904632568, "cumulative_oil": 19772.19921875, "on_production_date": "2018-10-06", "last_production_date": "2025-12-01"}, {"well_id": "104080508215W509", "formatted_id": "104/08-05-082-15W5/09", "name": "OBE 104 HZ SEAL 8-5-82-15", "lat": 56.0766688, "lon": -116.32664, "formation": "Bluesky", "field": "SEAL", "well_status": "Pumping", "risk_level": "HIGH — DUE", "months_running": 88, "dec_rate_bbl_d": 3.670000076293945, "cumulative_oil": 9414.7001953125, "on_production_date": "2018-10-06", "last_production_date": "2025-12-01"}, {"well_id": "100060808215W508", "formatted_id": "100/06-08-082-15W5/08", "name": "OBE HZ 104 SEAL 6-8-82-15", "lat": 56.0919898, "lon": -116.3244757, "formation": "Bluesky", "field": "SEAL", "well_status": "Pumping", "risk_level": "HIGH — DUE", "months_running": 84, "dec_rate_bbl_d": 1.490000009536743, "cumulative_oil": 18583.599609375, "on_production_date": "2019-02-26", "last_production_date": "2025-12-01"}, {"well_id": "105090808215W507", "formatted_id": "105/09-08-082-15W5/07", "name": "OBE HZ 105 SEAL 9-8-82-15", "lat": 56.0919818, "lon": -116.3246367, "formation": "Bluesky", "field": "SEAL", "well_status": "Pumping", "risk_level": "HIGH — DUE", "months_running": 84, "dec_rate_bbl_d": 5.920000076293945, "cumulative_oil": 21240.599609375, "on_production_date": "2019-02-26", "last_production_date": "2025-12-01"}, {"well_id": "103151908217W509", "formatted_id": "103/15-19-082-17W5/09", "name": "OBE HZ WALRUS 15-19-82-17", "lat": 56.1519661, "lon": -116.6522849, "formation": "Bluesky", "field": "UNDEFINED", "well_status": "Pumping", "risk_level": "HIGH — DUE", "months_running": 50, "dec_rate_bbl_d": 13.89000034332275, "cumulative_oil": 47262.3984375, "on_production_date": "2021-12-28", "last_production_date": "2025-12-01"}, {"well_id": "104141908217W509", "formatted_id": "104/14-19-082-17W5/09", "name": "OBE HZ WALRUS 14-19-82-17", "lat": 56.1518071, "lon": -116.6525719, "formation": "Bluesky", "field": "UNDEFINED", "well_status": "Pumping", "risk_level": "HIGH — DUE", "months_running": 50, "dec_rate_bbl_d": 9.319999694824219, "cumulative_oil": 36121.8984375, "on_production_date": "2021-12-28", "last_production_date": "2025-12-01"}, {"well_id": "104131908217W509", "formatted_id": "104/13-19-082-17W5/09", "name": "OBE HZ WALRUS 13-19-82-17", "lat": 56.1516491, "lon": -116.6528599, "formation": "Bluesky", "field": "UNDEFINED", "well_status": "Pumping", "risk_level": "HIGH — DUE", "months_running": 50, "dec_rate_bbl_d": 8.170000076293945, "cumulative_oil": 32770.8984375, "on_production_date": "2021-12-28", "last_production_date": "2025-12-01"}, {"well_id": "104093508218W509", "formatted_id": "104/09-35-082-18W5/09", "name": "OBE 102 HZ HARMON 9-35-82-18", "lat": 56.1418182, "lon": -116.6832505, "formation": "Bluesky", "field": "UNDEFINED", "well_status": "Pumping", "risk_level": "HIGH — DUE", "months_running": 49, "dec_rate_bbl_d": 6.650000095367432, "cumulative_oil": 47383.1015625, "on_production_date": "2022-01-01", "last_production_date": "2025-12-01"}, {"well_id": "100083408218W509", "formatted_id": "100/08-34-082-18W5/09", "name": "OBE HZ 8-34-82-18", "lat": 56.1474422, "lon": -116.7035196, "formation": "Bluesky", "field": "UNDEFINED", "well_status": "Pumping", "risk_level": "HIGH — DUE", "months_running": 46, "dec_rate_bbl_d": 3.380000114440918, "cumulative_oil": 13833.400390625, "on_production_date": "2022-04-11", "last_production_date": "2025-12-01"}, {"well_id": "103032608218W509", "formatted_id": "103/03-26-082-18W5/09", "name": "OBE 103 HZ 3-26-82-18", "lat": 56.1474432, "lon": -116.7027946, "formation": "Bluesky", "field": "UNDEFINED", "well_status": "Pumping", "risk_level": "HIGH — DUE", "months_running": 46, "dec_rate_bbl_d": 10.68000030517578, "cumulative_oil": 19972.19921875, "on_production_date": "2022-04-11", "last_production_date": "2025-12-01"}, {"well_id": "100013208319W509", "formatted_id": "100/01-32-083-19W5/09", "name": "OBE 100 HZ HARMONV 1-32-83-19", "lat": 56.2483071, "lon": -116.9652097, "formation": "Bluesky", "field": "UNDEFINED", "well_status": "Pumping", "risk_level": "HIGH — DUE", "months_running": 36, "dec_rate_bbl_d": 15.53999996185303, "cumulative_oil": 23184.19921875, "on_production_date": "2023-02-15", "last_production_date": "2025-12-01"}, {"well_id": "100023208319W509", "formatted_id": "100/02-32-083-19W5/09", "name": "OBE 100 HZ HARMONV 2-32-83-19", "lat": 56.2483061, "lon": -116.9656137, "formation": "Bluesky", "field": "UNDEFINED", "well_status": "Pumping", "risk_level": "HIGH — DUE", "months_running": 38, "dec_rate_bbl_d": 11.19999980926514, "cumulative_oil": 24091.099609375, "on_production_date": "2022-12-19", "last_production_date": "2025-12-01"}, {"well_id": "100033208319W509", "formatted_id": "100/03-32-083-19W5/09", "name": "OBE 100 HZ HARMONV 3-32-83-19", "lat": 56.2483061, "lon": -116.9659967, "formation": "Bluesky", "field": "UNDEFINED", "well_status": "Pumping", "risk_level": "HIGH — DUE", "months_running": 35, "dec_rate_bbl_d": 15.52000045776367, "cumulative_oil": 22925.80078125, "on_production_date": "2023-03-14", "last_production_date": "2025-12-01"}, {"well_id": "100043208319W509", "formatted_id": "100/04-32-083-19W5/09", "name": "OBE 100 HZ HARMONV 4-32-83-19", "lat": 56.2483061, "lon": -116.9664007, "formation": "Bluesky", "field": "UNDEFINED", "well_status": "Pumping", "risk_level": "HIGH — DUE", "months_running": 30, "dec_rate_bbl_d": 18.28000068664551, "cumulative_oil": 22472.19921875, "on_production_date": "2023-08-25", "last_production_date": "2025-12-01"}, {"well_id": "106093208115W507", "formatted_id": "106/09-32-081-15W5/07", "name": "OBE 106 HZ DAWSON 9-32-81-15", "lat": 56.0638208, "lon": -116.3280382, "formation": "Bluesky", "field": "DAWSON", "well_status": "Pumping", "risk_level": "HIGH — DUE", "months_running": 42, "dec_rate_bbl_d": 10.28999996185303, "cumulative_oil": 20157.19921875, "on_production_date": "2022-08-28", "last_production_date": "2025-12-01"}, {"well_id": "104083208115W509", "formatted_id": "104/08-32-081-15W5/09", "name": "OBE 104 HZ DAWSON 8-32-81-15", "lat": 56.0637308, "lon": -116.3280332, "formation": "Bluesky", "field": "DAWSON", "well_status": "Pumping", "risk_level": "HIGH — DUE", "months_running": 42, "dec_rate_bbl_d": 8.640000343322754, "cumulative_oil": 16791.30078125, "on_production_date": "2022-08-28", "last_production_date": "2025-12-01"}, {"well_id": "100010608013W502", "formatted_id": "100/01-06-080-13W5/02", "name": "WOODCOTE OIL HZ DAWSON 1-6-80-13", "lat": 55.897111, "lon": -115.9820529, "formation": "Clearwater", "field": "UNDEFINED", "well_status": "Pumping", "risk_level": "HIGH — DUE", "months_running": 41, "dec_rate_bbl_d": 1.960000038146973, "cumulative_oil": 6317.2998046875, "on_production_date": "2022-09-04", "last_production_date": "2025-12-01"}, {"well_id": "105163208115W509", "formatted_id": "105/16-32-081-15W5/09", "name": "OBE 105 HZ DAWSON 16-32-81-15", "lat": 56.0707828, "lon": -116.3262371, "formation": "Bluesky", "field": "DAWSON", "well_status": "Pumping", "risk_level": "HIGH — DUE", "months_running": 42, "dec_rate_bbl_d": 9.979999542236328, "cumulative_oil": 17865.30078125, "on_production_date": "2022-08-30", "last_production_date": "2025-12-01"}, {"well_id": "106080508215W509", "formatted_id": "106/08-05-082-15W5/09", "name": "OBE HZ SEAL 8-5-82-15", "lat": 56.0812898, "lon": -116.3288869, "formation": "Bluesky", "field": "SEAL", "well_status": "Pumping", "risk_level": "HIGH — DUE", "months_running": 41, "dec_rate_bbl_d": 10.65999984741211, "cumulative_oil": 10286.2001953125, "on_production_date": "2022-09-14", "last_production_date": "2025-12-01"}, {"well_id": "106010808215W505", "formatted_id": "106/01-08-082-15W5/05", "name": "OBE 106 HZ SEAL 1-8-82-15", "lat": 56.0882138, "lon": -116.3240667, "formation": "Bluesky", "field": "SEAL", "well_status": "Pumping", "risk_level": "HIGH — DUE", "months_running": 40, "dec_rate_bbl_d": 9.09000015258789, "cumulative_oil": 13534.5, "on_production_date": "2022-10-15", "last_production_date": "2025-12-01"}, {"well_id": "108160508215W506", "formatted_id": "108/16-05-082-15W5/06", "name": "OBE 108 HZ SEAL 16-5-82-15", "lat": 56.0881238, "lon": -116.3240727, "formation": "Bluesky", "field": "SEAL", "well_status": "Pumping", "risk_level": "HIGH — DUE", "months_running": 40, "dec_rate_bbl_d": 7.039999961853027, "cumulative_oil": 12737.599609375, "on_production_date": "2022-10-15", "last_production_date": "2025-12-01"}, {"well_id": "103162908115W506", "formatted_id": "103/16-29-081-15W5/06", "name": "OBE 103 HZ DAWSON 16-29-81-15", "lat": 56.0554508, "lon": -116.3274703, "formation": "Bluesky", "field": "DAWSON", "well_status": "Pumping", "risk_level": "HIGH — DUE", "months_running": 40, "dec_rate_bbl_d": 10.11999988555908, "cumulative_oil": 12222.2001953125, "on_production_date": "2022-10-31", "last_production_date": "2025-12-01"}, {"well_id": "104092908115W506", "formatted_id": "104/09-29-081-15W5/06", "name": "OBE 104 HZ DAWSON 9-29-81-15", "lat": 56.0551888, "lon": -116.3273533, "formation": "Bluesky", "field": "DAWSON", "well_status": "Pumping", "risk_level": "HIGH — DUE", "months_running": 40, "dec_rate_bbl_d": 9.819999694824219, "cumulative_oil": 14312.0, "on_production_date": "2022-10-31", "last_production_date": "2025-12-01"}, {"well_id": "100033208217W509", "formatted_id": "100/03-32-082-17W5/09", "name": "OBE HZ WALRUS 3-32-82-17", "lat": 56.16475, "lon": -116.6295363, "formation": "Bluesky", "field": "UNDEFINED", "well_status": "Pumping", "risk_level": "HIGH — DUE", "months_running": 36, "dec_rate_bbl_d": 2.799999952316284, "cumulative_oil": 7038.2001953125, "on_production_date": "2023-02-28", "last_production_date": "2025-12-01"}, {"well_id": "102033208217W509", "formatted_id": "102/03-32-082-17W5/09", "name": "OBE 102 HZ WALRUS 3-32-82-17", "lat": 56.164592, "lon": -116.6298233, "formation": "Bluesky", "field": "UNDEFINED", "well_status": "Pumping", "risk_level": "HIGH — DUE", "months_running": 36, "dec_rate_bbl_d": 2.970000028610229, "cumulative_oil": 4271.60009765625, "on_production_date": "2023-02-28", "last_production_date": "2025-12-01"}, {"well_id": "100040908013W500", "formatted_id": "100/04-09-080-13W5/00", "name": "WOODCOTE OIL HZ GIFT 4-9-80-13", "lat": 55.897141, "lon": -115.9818319, "formation": "Clearwater", "field": "UNDEFINED", "well_status": "Pumping", "risk_level": "HIGH — DUE", "months_running": 37, "dec_rate_bbl_d": 3.009999990463257, "cumulative_oil": 5386.10009765625, "on_production_date": "2023-01-03", "last_production_date": "2025-12-01"}, {"well_id": "100120407815W502", "formatted_id": "100/12-04-078-15W5/02", "name": "WOODCOTE OIL HZ PEAVINE 12-4-78-15", "lat": 55.7330579, "lon": -116.2461723, "formation": "Clearwater", "field": "UNDEFINED", "well_status": "Pumping", "risk_level": "HIGH — DUE", "months_running": 37, "dec_rate_bbl_d": 0.0, "cumulative_oil": 870.5999755859375, "on_production_date": "2023-01-24", "last_production_date": "2024-02-01"}, {"well_id": "100011708317W509", "formatted_id": "100/01-17-083-17W5/09", "name": "OBE SEAL HV SOUTH HZ 1-17-83-17", "lat": 56.1726801, "lon": -116.6499034, "formation": "Bluesky", "field": "UNDEFINED", "well_status": "Pumping", "risk_level": "HIGH — DUE", "months_running": 36, "dec_rate_bbl_d": 5.630000114440918, "cumulative_oil": 7351.2998046875, "on_production_date": "2023-02-18", "last_production_date": "2025-12-01"}, {"well_id": "100143008216W509", "formatted_id": "100/14-30-082-16W5/09", "name": "OBE HZ SEAL 14-30-82-16", "lat": 56.128296, "lon": -116.5003793, "formation": "Bluesky", "field": "SEAL", "well_status": "Pumping", "risk_level": "HIGH — DUE", "months_running": 36, "dec_rate_bbl_d": 9.760000228881836, "cumulative_oil": 12186.400390625, "on_production_date": "2023-02-10", "last_production_date": "2025-12-01"}, {"well_id": "100121507815W500", "formatted_id": "100/12-15-078-15W5/00", "name": "WOODCOTE OIL HZ PEAVINE 12-15-78-15", "lat": 55.7627479, "lon": -116.2185468, "formation": "Clearwater", "field": "UNDEFINED", "well_status": "Pumping", "risk_level": "HIGH — DUE", "months_running": 35, "dec_rate_bbl_d": 0.0, "cumulative_oil": 658.0, "on_production_date": "2023-03-01", "last_production_date": "2025-03-01"}, {"well_id": "102022008316W509", "formatted_id": "102/02-20-083-16W5/09", "name": "OBE 102 HZ 2-20-83-16", "lat": 56.2173679, "lon": -116.4848973, "formation": "Bluesky", "field": "UNDEFINED", "well_status": "Pumping", "risk_level": "HIGH — DUE", "months_running": 37, "dec_rate_bbl_d": 0.0, "cumulative_oil": 316.2000122070312, "on_production_date": "2023-01-31", "last_production_date": "2025-12-01"}, {"well_id": "100133008216W509", "formatted_id": "100/13-30-082-16W5/09", "name": "OBE HZ SEAL 13-30-82-16", "lat": 56.128296, "lon": -116.5007823, "formation": "Bluesky", "field": "SEAL", "well_status": "Pumping", "risk_level": "HIGH — DUE", "months_running": 27, "dec_rate_bbl_d": 11.89000034332275, "cumulative_oil": 15068.2998046875, "on_production_date": "2023-11-19", "last_production_date": "2025-12-01"}, {"well_id": "1S0013008217W509", "formatted_id": "1S0/01-30-082-17W5/09", "name": "OBE 100 HZ WALRUS 1-30-82-17", "lat": 56.1483221, "lon": -116.6356347, "formation": "Bluesky", "field": "UNDEFINED", "well_status": "Pumping", "risk_level": "HIGH — DUE", "months_running": 34, "dec_rate_bbl_d": 3.019999980926514, "cumulative_oil": 12148.2998046875, "on_production_date": "2023-04-24", "last_production_date": "2025-12-01"}, {"well_id": "1S0042908217W509", "formatted_id": "1S0/04-29-082-17W5/09", "name": "OBE HZ WALRUS 4-29-82-17", "lat": 56.1483221, "lon": -116.6352327, "formation": "Bluesky", "field": "UNDEFINED", "well_status": "Pumping", "risk_level": "HIGH — DUE", "months_running": 34, "dec_rate_bbl_d": 5.360000133514404, "cumulative_oil": 9272.2001953125, "on_production_date": "2023-04-24", "last_production_date": "2025-12-01"}, {"well_id": "1S0032908217W509", "formatted_id": "1S0/03-29-082-17W5/09", "name": "OBE HZ WALRUS 3-29-82-17", "lat": 56.1483221, "lon": -116.6348297, "formation": "Bluesky", "field": "UNDEFINED", "well_status": "Pumping", "risk_level": "HIGH — DUE", "months_running": 30, "dec_rate_bbl_d": 6.929999828338623, "cumulative_oil": 11214.7001953125, "on_production_date": "2023-08-10", "last_production_date": "2025-12-01"}, {"well_id": "100101508013W500", "formatted_id": "100/10-15-080-13W5/00", "name": "WOODCOTE OIL HZ SEAL 10-15-80-13", "lat": 55.954113, "lon": -115.9423702, "formation": "Clearwater", "field": "UNDEFINED", "well_status": "Pumping", "risk_level": "HIGH — DUE", "months_running": 37, "dec_rate_bbl_d": 0.0, "cumulative_oil": 3065.39990234375, "on_production_date": "2023-01-28", "last_production_date": "2025-03-01"}, {"well_id": "104160808215W509", "formatted_id": "104/16-08-082-15W5/09", "name": "OBE 104 HZ SEAL 16-8-82-15", "lat": 56.0986747, "lon": -116.3216115, "formation": "Bluesky", "field": "SEAL", "well_status": "Pumping", "risk_level": "HIGH — DUE", "months_running": 25, "dec_rate_bbl_d": 6.269999980926514, "cumulative_oil": 9067.900390625, "on_production_date": "2024-01-20", "last_production_date": "2025-12-01"}, {"well_id": "100081808013W500", "formatted_id": "100/08-18-080-13W5/00", "name": "WOODCOTE OIL HZ SEAL 8-18-80-13", "lat": 55.935168, "lon": -115.9792894, "formation": "Clearwater", "field": "UNDEFINED", "well_status": "Suspended", "risk_level": "HIGH — DUE", "months_running": 36, "dec_rate_bbl_d": 0.0, "cumulative_oil": 337.2999877929688, "on_production_date": "2023-02-24", "last_production_date": "2023-04-01"}, {"well_id": "100040908012W500", "formatted_id": "100/04-09-080-12W5/00", "name": "WOODCOTE OIL HZ SEAL 4-9-80-12", "lat": 55.911469, "lon": -115.7990644, "formation": "Clearwater", "field": "SEAL", "well_status": "Pumping", "risk_level": "HIGH — DUE", "months_running": 26, "dec_rate_bbl_d": 3.650000095367432, "cumulative_oil": 1985.199951171875, "on_production_date": "2023-12-24", "last_production_date": "2025-12-01"}, {"well_id": "102143008216W509", "formatted_id": "102/14-30-082-16W5/09", "name": "OBE 102 HZ SEAL 14-30-82-16", "lat": 56.128116, "lon": -116.5007013, "formation": "Bluesky", "field": "SEAL", "well_status": "Pumping", "risk_level": "HIGH — DUE", "months_running": 27, "dec_rate_bbl_d": 20.06999969482422, "cumulative_oil": 20847.0, "on_production_date": "2023-11-20", "last_production_date": "2025-12-01"}, {"well_id": "100141808216W509", "formatted_id": "100/14-18-082-16W5/09", "name": "OBE 100 HZ SEAL 14-18-82-16", "lat": 56.128116, "lon": -116.5003793, "formation": "Bluesky", "field": "SEAL", "well_status": "Pumping", "risk_level": "HIGH — DUE", "months_running": 27, "dec_rate_bbl_d": 2.920000076293945, "cumulative_oil": 7448.39990234375, "on_production_date": "2023-11-20", "last_production_date": "2025-12-01"}, {"well_id": "100121808216W509", "formatted_id": "100/12-18-082-16W5/09", "name": "OBE HZ SEAL 12-18-82-16", "lat": 56.128296, "lon": -116.5000573, "formation": "Bluesky", "field": "SEAL", "well_status": "Pumping", "risk_level": "HIGH — DUE", "months_running": 27, "dec_rate_bbl_d": 2.019999980926514, "cumulative_oil": 5051.7998046875, "on_production_date": "2023-11-20", "last_production_date": "2025-12-01"}, {"well_id": "102082708218W509", "formatted_id": "102/08-27-082-18W5/09", "name": "OBE HZ 102 WALRUS 8-27-82-18", "lat": 56.1358553, "lon": -116.7467693, "formation": "Bluesky", "field": "UNDEFINED", "well_status": "Pumping", "risk_level": "HIGH — DUE", "months_running": 23, "dec_rate_bbl_d": 10.44999980926514, "cumulative_oil": 24243.599609375, "on_production_date": "2024-03-29", "last_production_date": "2025-12-01"}, {"well_id": "103012708218W509", "formatted_id": "103/01-27-082-18W5/09", "name": "OBE HZ WALRUS 1-27-82-18", "lat": 56.1358553, "lon": -116.7464473, "formation": "Bluesky", "field": "UNDEFINED", "well_status": "Pumping", "risk_level": "HIGH — DUE", "months_running": 23, "dec_rate_bbl_d": 10.23999977111816, "cumulative_oil": 23344.0, "on_production_date": "2024-03-29", "last_production_date": "2025-12-01"}, {"well_id": "102153008216W509", "formatted_id": "102/15-30-082-16W5/09", "name": "OBE HZ SEAL 15-30-82-16", "lat": 56.127769, "lon": -116.4892232, "formation": "Bluesky", "field": "SEAL", "well_status": "Pumping", "risk_level": "HIGH — DUE", "months_running": 22, "dec_rate_bbl_d": 6.920000076293945, "cumulative_oil": 4773.60009765625, "on_production_date": "2024-04-23", "last_production_date": "2025-12-01"}, {"well_id": "100163008216W509", "formatted_id": "100/16-30-082-16W5/09", "name": "OBE HZ SEAL 16-30-82-16", "lat": 56.127769, "lon": -116.4889012, "formation": "Bluesky", "field": "SEAL", "well_status": "Pumping", "risk_level": "HIGH — DUE", "months_running": 22, "dec_rate_bbl_d": 0.0, "cumulative_oil": 1114.099975585938, "on_production_date": "2024-04-23", "last_production_date": "2025-09-01"}, {"well_id": "100101808216W509", "formatted_id": "100/10-18-082-16W5/09", "name": "OBE HZ SEAL 10-18-82-16", "lat": 56.127409, "lon": -116.4892232, "formation": "Bluesky", "field": "SEAL", "well_status": "Pumping", "risk_level": "HIGH — DUE", "months_running": 22, "dec_rate_bbl_d": 4.150000095367432, "cumulative_oil": 8734.900390625, "on_production_date": "2024-04-23", "last_production_date": "2025-12-01"}, {"well_id": "100091808216W509", "formatted_id": "100/09-18-082-16W5/09", "name": "OBE HZ SEAL 9-18-82-16", "lat": 56.127409, "lon": -116.4889012, "formation": "Bluesky", "field": "SEAL", "well_status": "Pumping", "risk_level": "HIGH — DUE", "months_running": 22, "dec_rate_bbl_d": 4.099999904632568, "cumulative_oil": 4094.300048828125, "on_production_date": "2024-04-23", "last_production_date": "2025-12-01"}, {"well_id": "103153008216W509", "formatted_id": "103/15-30-082-16W5/09", "name": "OBE HZ SEAL 15-30-82-16", "lat": 56.127589, "lon": -116.4892222, "formation": "Bluesky", "field": "SEAL", "well_status": "Pumping", "risk_level": "HIGH — DUE", "months_running": 22, "dec_rate_bbl_d": 12.27000045776367, "cumulative_oil": 11735.900390625, "on_production_date": "2024-04-23", "last_production_date": "2025-12-01"}, {"well_id": "102163008216W509", "formatted_id": "102/16-30-082-16W5/09", "name": "OBE 102 SEAL 16-30-82-16", "lat": 56.127589, "lon": -116.4889012, "formation": "Bluesky", "field": "SEAL", "well_status": "Pumping", "risk_level": "HIGH — DUE", "months_running": 22, "dec_rate_bbl_d": 9.220000267028809, "cumulative_oil": 5460.39990234375, "on_production_date": "2024-04-23", "last_production_date": "2025-12-01"}, {"well_id": "100131908317W509", "formatted_id": "100/13-19-083-17W5/09", "name": "OBE 100 HZ 13-19-83-17", "lat": 56.20058, "lon": -116.6837623, "formation": "Bluesky", "field": "UNDEFINED", "well_status": "Pumping", "risk_level": "WATCH", "months_running": 10, "dec_rate_bbl_d": 11.48999977111816, "cumulative_oil": 4234.39990234375, "on_production_date": "2025-04-14", "last_production_date": "2025-12-01"}, {"well_id": "102141908317W509", "formatted_id": "102/14-19-083-17W5/09", "name": "OBE 102 HZ 14-19-83-17", "lat": 56.200581, "lon": -116.6834403, "formation": "Bluesky", "field": "UNDEFINED", "well_status": "Pumping", "risk_level": "WATCH", "months_running": 10, "dec_rate_bbl_d": 12.4399995803833, "cumulative_oil": 5467.39990234375, "on_production_date": "2025-04-14", "last_production_date": "2025-12-01"}, {"well_id": "100151908317W509", "formatted_id": "100/15-19-083-17W5/09", "name": "OBE 100 HZ 15-19-83-17", "lat": 56.200401, "lon": -116.6834383, "formation": "Bluesky", "field": "UNDEFINED", "well_status": "Pumping", "risk_level": "HIGH — DUE", "months_running": 18, "dec_rate_bbl_d": 18.09000015258789, "cumulative_oil": 17413.30078125, "on_production_date": "2024-08-23", "last_production_date": "2025-12-01"}, {"well_id": "100131708317W509", "formatted_id": "100/13-17-083-17W5/09", "name": "OBE 100 HZ 13-17-83-17", "lat": 56.185457, "lon": -116.6593543, "formation": "Bluesky", "field": "UNDEFINED", "well_status": "Pumping", "risk_level": "WATCH", "months_running": 10, "dec_rate_bbl_d": 26.14999961853027, "cumulative_oil": 8941.5, "on_production_date": "2025-04-14", "last_production_date": "2025-12-01"}, {"well_id": "100141708317W509", "formatted_id": "100/14-17-083-17W5/09", "name": "OBE 100 HZ 14-17-83-17", "lat": 56.185277, "lon": -116.6593533, "formation": "Bluesky", "field": "UNDEFINED", "well_status": "Pumping", "risk_level": "HIGH — DUE", "months_running": 18, "dec_rate_bbl_d": 25.17000007629395, "cumulative_oil": 17346.599609375, "on_production_date": "2024-08-03", "last_production_date": "2025-12-01"}, {"well_id": "100132908216W509", "formatted_id": "100/13-29-082-16W5/09", "name": "OBE 100 HZ SEAL 13-29-82-16", "lat": 56.1219969, "lon": -116.4689893, "formation": "Bluesky", "field": "SEAL", "well_status": "Pumping", "risk_level": "HIGH — DUE", "months_running": 18, "dec_rate_bbl_d": 19.3700008392334, "cumulative_oil": 10668.900390625, "on_production_date": "2024-08-04", "last_production_date": "2025-12-01"}, {"well_id": "100021608216W509", "formatted_id": "100/02-16-082-16W5/09", "name": "OBE 100 HZ SEAL 2-16-82-16", "lat": 56.1197909, "lon": -116.4403563, "formation": "Bluesky", "field": "SEAL", "well_status": "Pumping", "risk_level": "HIGH — DUE", "months_running": 18, "dec_rate_bbl_d": 9.920000076293945, "cumulative_oil": 4626.2001953125, "on_production_date": "2024-08-26", "last_production_date": "2025-12-01"}, {"well_id": "100031608216W509", "formatted_id": "100/03-16-082-16W5/09", "name": "OBE 100 HZ SEAL 3-16-82-16", "lat": 56.1197909, "lon": -116.4406783, "formation": "Bluesky", "field": "SEAL", "well_status": "Pumping", "risk_level": "WATCH", "months_running": 10, "dec_rate_bbl_d": 12.68000030517578, "cumulative_oil": 3707.89990234375, "on_production_date": "2025-04-19", "last_production_date": "2025-12-01"}, {"well_id": "102132208419W509", "formatted_id": "102/13-22-084-19W5/09", "name": "OBE 102 HZ 13-22-84-19", "lat": 56.2867787, "lon": -116.9230309, "formation": "Bluesky", "field": "UNDEFINED", "well_status": "Pumping", "risk_level": "WATCH", "months_running": 15, "dec_rate_bbl_d": 0.0, "cumulative_oil": 414.0, "on_production_date": "2024-11-04", "last_production_date": "2025-02-01"}, {"well_id": "103132208419W509", "formatted_id": "103/13-22-084-19W5/09", "name": "OBE 103 HZ 13-22-84-19", "lat": 56.2869587, "lon": -116.9230309, "formation": "Bluesky", "field": "UNDEFINED", "well_status": "Pumping", "risk_level": "WATCH", "months_running": 15, "dec_rate_bbl_d": 9.779999732971191, "cumulative_oil": 6292.2998046875, "on_production_date": "2024-11-04", "last_production_date": "2025-12-01"}, {"well_id": "102162108419W509", "formatted_id": "102/16-21-084-19W5/09", "name": "OBE 102 HZ 16-21-84-19", "lat": 56.2867787, "lon": -116.9233539, "formation": "Bluesky", "field": "UNDEFINED", "well_status": "Pumping", "risk_level": "WATCH", "months_running": 15, "dec_rate_bbl_d": 0.0, "cumulative_oil": 74.19999694824219, "on_production_date": "2024-11-04", "last_production_date": "2025-02-01"}, {"well_id": "100161208317W509", "formatted_id": "100/16-12-083-17W5/09", "name": "OBE 100 HZ 16-12-83-17", "lat": 56.171749, "lon": -116.5379514, "formation": "Bluesky", "field": "UNDEFINED", "well_status": "Pumping", "risk_level": "WATCH", "months_running": 14, "dec_rate_bbl_d": 0.0, "cumulative_oil": 67.80000305175781, "on_production_date": "2024-12-14", "last_production_date": "2025-04-01"}, {"well_id": "100151208317W509", "formatted_id": "100/15-12-083-17W5/09", "name": "OBE 100 HZ 15-12-83-17", "lat": 56.17184, "lon": -116.5382294, "formation": "Bluesky", "field": "UNDEFINED", "well_status": "Pumping", "risk_level": "WATCH", "months_running": 14, "dec_rate_bbl_d": 0.8299999833106995, "cumulative_oil": 820.0999755859375, "on_production_date": "2024-12-14", "last_production_date": "2025-12-01"}, {"well_id": "100160608316W509", "formatted_id": "100/16-06-083-16W5/09", "name": "OBE 100 HZ 16-6-83-16", "lat": 56.171594, "lon": -116.5381154, "formation": "Bluesky", "field": "UNDEFINED", "well_status": "Pumping", "risk_level": "WATCH", "months_running": 13, "dec_rate_bbl_d": 8.6899995803833, "cumulative_oil": 2029.199951171875, "on_production_date": "2025-01-09", "last_production_date": "2025-12-01"}, {"well_id": "100090608316W509", "formatted_id": "100/09-06-083-16W5/09", "name": "OBE 100 HZ 9-6-83-16", "lat": 56.171685, "lon": -116.5383924, "formation": "Bluesky", "field": "UNDEFINED", "well_status": "Pumping", "risk_level": "WATCH", "months_running": 13, "dec_rate_bbl_d": 10.0, "cumulative_oil": 5852.2001953125, "on_production_date": "2025-01-09", "last_production_date": "2025-12-01"}, {"well_id": "100082908218W509", "formatted_id": "100/08-29-082-18W5/09", "name": "OBE SEAL 100 HZ 8-29-82-18", "lat": 56.1360343, "lon": -116.7464473, "formation": "Bluesky", "field": "UNDEFINED", "well_status": "Pumping", "risk_level": "WATCH", "months_running": 16, "dec_rate_bbl_d": 21.84000015258789, "cumulative_oil": 13825.2998046875, "on_production_date": "2024-10-16", "last_production_date": "2025-12-01"}, {"well_id": "100012908218W509", "formatted_id": "100/01-29-082-18W5/09", "name": "OBE SEAL 100 HZ 1-29-82-18", "lat": 56.1360343, "lon": -116.7467683, "formation": "Bluesky", "field": "UNDEFINED", "well_status": "Pumping", "risk_level": "WATCH", "months_running": 16, "dec_rate_bbl_d": 14.10000038146973, "cumulative_oil": 5878.0, "on_production_date": "2024-10-16", "last_production_date": "2025-12-01"}, {"well_id": "100083108319W509", "formatted_id": "100/08-31-083-19W5/09", "name": "OBE 100 HZ HARMONV 8-31-83-19", "lat": 56.2421073, "lon": -117.010627, "formation": "Bluesky", "field": "UNDEFINED", "well_status": "Pumping", "risk_level": "WATCH", "months_running": 13, "dec_rate_bbl_d": 0.0, "cumulative_oil": 80.0999984741211, "on_production_date": "2025-01-11", "last_production_date": "2025-03-01"}, {"well_id": "100093108319W509", "formatted_id": "100/09-31-083-19W5/09", "name": "OBE 100 HZ HARMONV 9-31-83-19", "lat": 56.2422683, "lon": -117.010482, "formation": "Bluesky", "field": "UNDEFINED", "well_status": "Pumping", "risk_level": "WATCH", "months_running": 14, "dec_rate_bbl_d": 0.0, "cumulative_oil": 0.1000000014901161, "on_production_date": "2024-12-18", "last_production_date": "2025-02-01"}, {"well_id": "100103108319W509", "formatted_id": "100/10-31-083-19W5/09", "name": "OBE 102 HZ 10-31-83-19", "lat": 56.2423483, "lon": -117.010771, "formation": "Bluesky", "field": "HARMON VALLEY", "well_status": "Pumping", "risk_level": "WATCH", "months_running": 14, "dec_rate_bbl_d": 0.0, "cumulative_oil": 2.200000047683716, "on_production_date": "2024-12-18", "last_production_date": "2025-03-01"}, {"well_id": "102041108114W509", "formatted_id": "102/04-11-081-14W5/09", "name": "OBE 102 HZ DAWSON 4-11-81-14", "lat": 56.0160618, "lon": -116.087428, "formation": "Bluesky", "field": "DAWSON", "well_status": "Pumping", "risk_level": "WATCH", "months_running": 11, "dec_rate_bbl_d": 26.06999969482422, "cumulative_oil": 8065.0, "on_production_date": "2025-03-04", "last_production_date": "2025-12-01"}, {"well_id": "100011608114W509", "formatted_id": "100/01-16-081-14W5/09", "name": "OBE 100 HZ DAWSON 1-16-81-14", "lat": 56.0159279, "lon": -116.087461, "formation": "Bluesky", "field": "DAWSON", "well_status": "Pumping", "risk_level": "WATCH", "months_running": 11, "dec_rate_bbl_d": 0.0, "cumulative_oil": 978.0, "on_production_date": "2025-03-06", "last_production_date": "2025-09-01"}, {"well_id": "100161808516W509", "formatted_id": "100/16-18-085-16W5/09", "name": "OBE 100 HZ NAMPA 16-18-85-16", "lat": 56.359242, "lon": -116.4988657, "formation": "Bluesky", "field": "UNDEFINED", "well_status": "Pumping", "risk_level": "WATCH", "months_running": 13, "dec_rate_bbl_d": 0.6700000166893005, "cumulative_oil": 41.20000076293945, "on_production_date": "2025-01-31", "last_production_date": "2025-12-01"}, {"well_id": "100081408117W509", "formatted_id": "100/08-14-081-17W5/09", "name": "OBE 100 HZ DAWSON 8-14-81-17", "lat": 56.0262552, "lon": -116.5675164, "formation": "Bluesky", "field": "DAWSON", "well_status": "Pumping", "risk_level": "WATCH", "months_running": 12, "dec_rate_bbl_d": 0.0, "cumulative_oil": 168.1999969482422, "on_production_date": "2025-02-05", "last_production_date": "2025-12-01"}, {"well_id": "100160808218W509", "formatted_id": "100/16-08-082-18W5/09", "name": "OBE 100 HZ HARMONV 16-8-82-18", "lat": 56.0991394, "lon": -116.7459458, "formation": "Bluesky", "field": "HARMON VALLEY", "well_status": "Pumping", "risk_level": "WATCH", "months_running": 11, "dec_rate_bbl_d": 0.0, "cumulative_oil": 451.8999938964844, "on_production_date": "2025-03-31", "last_production_date": "2025-10-01"}, {"well_id": "100161008218W509", "formatted_id": "100/16-10-082-18W5/09", "name": "OBE 100 HZ HARMONV 16-10-82-18", "lat": 56.0991384, "lon": -116.7456238, "formation": "Bluesky", "field": "HARMON VALLEY", "well_status": "Pumping", "risk_level": "WATCH", "months_running": 11, "dec_rate_bbl_d": 8.220000267028809, "cumulative_oil": 2903.60009765625, "on_production_date": "2025-03-31", "last_production_date": "2025-12-01"}, {"well_id": "100152608117W508", "formatted_id": "100/15-26-081-17W5/08", "name": "OBE 100 HZ DAWSON 15-26-81-17", "lat": 56.0524302, "lon": -116.567248, "formation": "Bluesky", "field": "DAWSON", "well_status": "Pumping", "risk_level": "WATCH", "months_running": 12, "dec_rate_bbl_d": 0.0, "cumulative_oil": 89.19999694824219, "on_production_date": "2025-02-20", "last_production_date": "2025-12-01"}, {"well_id": "100161508216W509", "formatted_id": "100/16-15-082-16W5/09", "name": "OBE 100 HZ SEAL 16-15-82-16", "lat": 56.1199709, "lon": -116.4406783, "formation": "Bluesky", "field": "SEAL", "well_status": "Pumping", "risk_level": "WATCH", "months_running": 10, "dec_rate_bbl_d": 43.06999969482422, "cumulative_oil": 11370.2998046875, "on_production_date": "2025-04-19", "last_production_date": "2025-12-01"}, {"well_id": "100131808317W509", "formatted_id": "100/13-18-083-17W5/09", "name": "OBE 100 HZ SEAL HV SOUTH 13-18-83-17", "lat": 56.186332, "lon": -116.6802246, "formation": "Bluesky", "field": "UNDEFINED", "well_status": "Pumping", "risk_level": "LOW", "months_running": 7, "dec_rate_bbl_d": 32.4900016784668, "cumulative_oil": 5217.7001953125, "on_production_date": "2025-07-28", "last_production_date": "2025-12-01"}, {"well_id": "100141808317W509", "formatted_id": "100/14-18-083-17W5/09", "name": "OBE 100 HZ SEAL HV SOUTH 14-18-83-17", "lat": 56.186153, "lon": -116.6802266, "formation": "Bluesky", "field": "UNDEFINED", "well_status": "Pumping", "risk_level": "LOW", "months_running": 7, "dec_rate_bbl_d": 35.29000091552734, "cumulative_oil": 8480.2001953125, "on_production_date": "2025-07-28", "last_production_date": "2025-12-01"}, {"well_id": "100021908317W509", "formatted_id": "100/02-19-083-17W5/09", "name": "OBE 100 HZ SEAL HV SOUTH 2-19-83-17", "lat": 56.186152, "lon": -116.6799046, "formation": "Bluesky", "field": "UNDEFINED", "well_status": "Pumping", "risk_level": "WATCH", "months_running": 9, "dec_rate_bbl_d": 43.25, "cumulative_oil": 14190.599609375, "on_production_date": "2025-05-03", "last_production_date": "2025-12-01"}, {"well_id": "102161808317W509", "formatted_id": "102/16-18-083-17W5/09", "name": "OBE 102 HZ 16-18-83-17", "lat": 56.185591, "lon": -116.6596773, "formation": "Bluesky", "field": "UNDEFINED", "well_status": "Pumping", "risk_level": "WATCH", "months_running": 10, "dec_rate_bbl_d": 33.63000106811523, "cumulative_oil": 11937.0, "on_production_date": "2025-04-14", "last_production_date": "2025-12-01"}]